current,height,name,city,state,latitude,longitude,abandoned,is completed,completed.year,air traffic control tower,belltower,bridge,casino,commercial,education,exhibition,floors above,government,hospital,hotel,industrial,library,museum,observation,office,other,rank,religious,residential,retail,serviced apartments,telecommunications
completed,0,Colony House Condominiums,Atlanta,Georgia,33.78799057,-84.38214874,FALSE,TRUE,1973,FALSE,FALSE,FALSE,FALSE,FALSE,FALSE,FALSE,15,FALSE,FALSE,FALSE,FALSE,FALSE,FALSE,FALSE,FALSE,FALSE,2416,FALSE,TRUE,FALSE,FALSE,FALSE
completed,33.2,My Micro NY,New York City,New York,40.73986816,-73.97737885,FALSE,TRUE,2015,FALSE,FALSE,FALSE,FALSE,FALSE,FALSE,FALSE,10,FALSE,FALSE,FALSE,FALSE,FALSE,FALSE,FALSE,FALSE,FALSE,2421,FALSE,TRUE,TRUE,FALSE,FALSE
completed,35.97000122,Knights of Columbus Building,Gary,Indiana,41.60179901,-87.34179688,FALSE,TRUE,1926,FALSE,FALSE,FALSE,FALSE,FALSE,FALSE,FALSE,11,FALSE,FALSE,FALSE,FALSE,FALSE,FALSE,FALSE,FALSE,FALSE,2347,FALSE,TRUE,FALSE,FALSE,FALSE
completed,43,Genesis Towers,Gary,Indiana,41.60052872,-87.33756256,FALSE,TRUE,1926,FALSE,FALSE,FALSE,FALSE,FALSE,FALSE,FALSE,10,FALSE,FALSE,FALSE,FALSE,FALSE,FALSE,FALSE,FALSE,FALSE,2344,FALSE,TRUE,FALSE,FALSE,FALSE
completed,43.27999878,504 Broadway,Gary,Indiana,41.60186005,-87.33760071,FALSE,TRUE,1927,FALSE,FALSE,FALSE,FALSE,FALSE,FALSE,FALSE,10,FALSE,FALSE,FALSE,FALSE,FALSE,FALSE,FALSE,TRUE,FALSE,2343,FALSE,FALSE,FALSE,FALSE,FALSE
completed,43.88999939,"Grange Mutual Insurance Headquarters, South Building",Columbus,Ohio,39.9486618,-82.99923706,FALSE,TRUE,2010,FALSE,FALSE,FALSE,FALSE,FALSE,FALSE,FALSE,10,FALSE,FALSE,FALSE,FALSE,FALSE,FALSE,FALSE,TRUE,FALSE,2342,FALSE,FALSE,FALSE,FALSE,FALSE
completed,44.5,Hilliard Senior Homes I,Chicago,Illinois,41.85337067,-87.62821198,FALSE,TRUE,1966,FALSE,FALSE,FALSE,FALSE,FALSE,FALSE,FALSE,16,FALSE,FALSE,FALSE,FALSE,FALSE,FALSE,FALSE,FALSE,FALSE,2340,FALSE,TRUE,FALSE,FALSE,FALSE
completed,44.5,Hilliard Senior Homes II,Chicago,Illinois,41.85383987,-87.62895203,FALSE,TRUE,1966,FALSE,FALSE,FALSE,FALSE,FALSE,FALSE,FALSE,16,FALSE,FALSE,FALSE,FALSE,FALSE,FALSE,FALSE,FALSE,FALSE,2340,FALSE,TRUE,FALSE,FALSE,FALSE
completed,44.81000137,Wainwright Building,St. Louis,Missouri,38.62705994,-90.19210052,FALSE,TRUE,1892,FALSE,FALSE,FALSE,FALSE,FALSE,FALSE,FALSE,10,TRUE,FALSE,FALSE,FALSE,FALSE,FALSE,FALSE,FALSE,FALSE,2339,FALSE,FALSE,FALSE,FALSE,FALSE
completed,45.183552,United States Courthouse ?Salt Lake City,Salt Lake City,Utah,40.76829147,-111.9011917,FALSE,TRUE,2014,FALSE,FALSE,FALSE,FALSE,FALSE,FALSE,FALSE,10,TRUE,FALSE,FALSE,FALSE,FALSE,FALSE,FALSE,FALSE,FALSE,2421,FALSE,FALSE,FALSE,FALSE,FALSE
completed,46,Meridian Plaza I,Sacramento,California,38.57683182,-121.4882889,FALSE,TRUE,2003,FALSE,FALSE,FALSE,FALSE,FALSE,FALSE,FALSE,12,FALSE,FALSE,FALSE,FALSE,FALSE,FALSE,FALSE,TRUE,FALSE,2337,FALSE,FALSE,FALSE,FALSE,FALSE
completed,47.244,Ohio Public Employees Retirement System,Columbus,Ohio,39.95930862,-82.99230957,FALSE,TRUE,2004,FALSE,FALSE,FALSE,FALSE,FALSE,FALSE,FALSE,13,FALSE,FALSE,FALSE,FALSE,FALSE,FALSE,FALSE,TRUE,FALSE,2420,FALSE,FALSE,FALSE,FALSE,FALSE
completed,47.40000153,"GEMS World Academy - Chicago, Lower School",Chicago,Illinois,41.88668823,-87.61884308,FALSE,TRUE,2014,FALSE,FALSE,FALSE,FALSE,FALSE,TRUE,FALSE,10,FALSE,FALSE,FALSE,FALSE,FALSE,FALSE,FALSE,FALSE,FALSE,2336,FALSE,FALSE,FALSE,FALSE,FALSE
completed,47.90000153,Ohio State House,Columbus,Ohio,39.96131897,-82.99907684,FALSE,TRUE,1861,FALSE,FALSE,FALSE,FALSE,FALSE,FALSE,FALSE,2,TRUE,FALSE,FALSE,FALSE,FALSE,FALSE,FALSE,FALSE,FALSE,2335,FALSE,FALSE,FALSE,FALSE,FALSE
completed,48.20000076,FlatironCity,Atlanta,Georgia,33.75590134,-84.38892365,FALSE,TRUE,1897,FALSE,FALSE,FALSE,FALSE,FALSE,FALSE,FALSE,11,FALSE,FALSE,FALSE,FALSE,FALSE,FALSE,FALSE,TRUE,FALSE,2334,FALSE,FALSE,FALSE,FALSE,FALSE
completed,49.06999969,Social and Behavioral Science Tower,Salt Lake City,Utah,40.76137924,-111.8463593,FALSE,TRUE,1971,FALSE,FALSE,FALSE,FALSE,FALSE,TRUE,FALSE,14,FALSE,FALSE,FALSE,FALSE,FALSE,FALSE,FALSE,FALSE,FALSE,2333,FALSE,FALSE,FALSE,FALSE,FALSE
completed,49.38000107,Bayard-Condict Building,New York City,New York,40.72637177,-73.99506378,FALSE,TRUE,1899,FALSE,FALSE,FALSE,FALSE,FALSE,FALSE,FALSE,13,FALSE,FALSE,FALSE,FALSE,FALSE,FALSE,FALSE,TRUE,FALSE,2332,FALSE,FALSE,FALSE,FALSE,FALSE
completed,50,Boston Building,Salt Lake City,Utah,40.76163101,-111.8906403,FALSE,TRUE,1910,FALSE,FALSE,FALSE,FALSE,FALSE,FALSE,FALSE,11,FALSE,FALSE,FALSE,FALSE,FALSE,FALSE,FALSE,TRUE,FALSE,2331,FALSE,FALSE,FALSE,FALSE,FALSE
completed,51,Guaranty Building,Buffalo,New York,42.8830719,-78.87677002,FALSE,TRUE,1896,FALSE,FALSE,FALSE,FALSE,FALSE,FALSE,FALSE,13,FALSE,FALSE,FALSE,FALSE,FALSE,FALSE,FALSE,TRUE,FALSE,2329,FALSE,FALSE,FALSE,FALSE,FALSE
completed,51.09999847,Reva and David Logan Center for Arts,Chicago,Illinois,41.78553009,-87.60350037,FALSE,TRUE,2012,FALSE,FALSE,FALSE,FALSE,FALSE,TRUE,FALSE,11,FALSE,FALSE,FALSE,FALSE,FALSE,FALSE,FALSE,FALSE,FALSE,2328,FALSE,FALSE,FALSE,FALSE,FALSE
completed,52.36000061,172 Montague Street,New York City,New York,40.6939888,-73.99217224,FALSE,TRUE,2015,FALSE,FALSE,FALSE,FALSE,FALSE,FALSE,FALSE,19,FALSE,FALSE,FALSE,FALSE,FALSE,FALSE,FALSE,FALSE,FALSE,2327,FALSE,TRUE,FALSE,FALSE,FALSE
completed,52.38999939,City Hyde Park,Chicago,Illinois,41.80194092,-87.58805847,FALSE,TRUE,2016,FALSE,FALSE,FALSE,FALSE,FALSE,FALSE,FALSE,14,FALSE,FALSE,FALSE,FALSE,FALSE,FALSE,FALSE,FALSE,FALSE,2326,FALSE,TRUE,TRUE,FALSE,FALSE
completed,52.75,Franklin Towers,Portland (ME),Maine,43.66156006,-70.25608063,FALSE,TRUE,1969,FALSE,FALSE,FALSE,FALSE,FALSE,FALSE,FALSE,16,FALSE,FALSE,FALSE,FALSE,FALSE,FALSE,FALSE,FALSE,FALSE,2325,FALSE,TRUE,FALSE,FALSE,FALSE
completed,53.29999924,River Towers A,Minneapolis,Minnesota,44.98310852,-93.26661682,FALSE,TRUE,1966,FALSE,FALSE,FALSE,FALSE,FALSE,FALSE,FALSE,16,FALSE,FALSE,FALSE,FALSE,FALSE,FALSE,FALSE,FALSE,FALSE,2324,FALSE,TRUE,FALSE,FALSE,FALSE
completed,53.34999847,Spertus Institute of Jewish Studies,Chicago,Illinois,41.87398911,-87.62467194,FALSE,TRUE,2007,FALSE,FALSE,FALSE,FALSE,FALSE,TRUE,FALSE,10,FALSE,FALSE,FALSE,FALSE,FALSE,FALSE,FALSE,FALSE,FALSE,2323,FALSE,FALSE,FALSE,FALSE,FALSE
completed,53.63999939,The Element,Dallas,Texas,32.78105164,-96.79606628,FALSE,TRUE,2008,FALSE,FALSE,FALSE,FALSE,FALSE,FALSE,FALSE,15,FALSE,FALSE,FALSE,FALSE,FALSE,FALSE,FALSE,FALSE,FALSE,2322,FALSE,TRUE,FALSE,FALSE,FALSE
completed,53.66999817,HL23,New York City,New York,40.74819183,-74.0047226,FALSE,TRUE,2011,FALSE,FALSE,FALSE,FALSE,FALSE,FALSE,FALSE,14,FALSE,FALSE,FALSE,FALSE,FALSE,FALSE,FALSE,FALSE,FALSE,2321,FALSE,TRUE,FALSE,FALSE,FALSE
completed,53.95000076,"Grange Mutual Insurance Headquarters, North Building",Columbus,Ohio,39.9486618,-82.99923706,FALSE,TRUE,1978,FALSE,FALSE,FALSE,FALSE,FALSE,FALSE,FALSE,12,FALSE,FALSE,FALSE,FALSE,FALSE,FALSE,FALSE,TRUE,FALSE,2320,FALSE,FALSE,FALSE,FALSE,FALSE
completed,54.29999924,Enquirer Building,Cincinnati,Ohio,39.10290146,-84.51384735,FALSE,TRUE,1928,FALSE,FALSE,FALSE,FALSE,FALSE,FALSE,FALSE,14,FALSE,FALSE,TRUE,FALSE,FALSE,FALSE,FALSE,FALSE,FALSE,2319,FALSE,FALSE,FALSE,FALSE,FALSE
completed,54.59999847,Ameristar East Chicago Hotel,East Chicago,Illinois,41.65243912,-87.43615723,FALSE,TRUE,2001,FALSE,FALSE,FALSE,FALSE,FALSE,FALSE,FALSE,15,FALSE,FALSE,TRUE,FALSE,FALSE,FALSE,FALSE,FALSE,FALSE,2318,FALSE,FALSE,FALSE,FALSE,FALSE
completed,55.02000046,The Rookery,Chicago,Illinois,41.87902832,-87.63191223,FALSE,TRUE,1888,FALSE,FALSE,FALSE,FALSE,FALSE,FALSE,FALSE,12,FALSE,FALSE,FALSE,FALSE,FALSE,FALSE,FALSE,TRUE,FALSE,2316,FALSE,FALSE,FALSE,FALSE,FALSE
completed,55.16999817,Blue Residential Tower,New York City,New York,40.71883011,-73.98738098,FALSE,TRUE,2007,FALSE,FALSE,FALSE,FALSE,FALSE,FALSE,FALSE,16,FALSE,FALSE,FALSE,FALSE,FALSE,FALSE,FALSE,FALSE,FALSE,2314,FALSE,TRUE,FALSE,FALSE,FALSE
completed,55.16999817,"Hilton Milwaukee City Center, West Building",Milwaukee,Wisconsin,43.03853989,-87.91847992,FALSE,TRUE,2000,FALSE,FALSE,FALSE,FALSE,FALSE,FALSE,FALSE,13,FALSE,FALSE,TRUE,FALSE,FALSE,FALSE,FALSE,FALSE,TRUE,2315,FALSE,FALSE,FALSE,FALSE,FALSE
completed,55.56000137,The Godfrey,Chicago,Illinois,41.89461136,-87.63213348,FALSE,TRUE,2014,FALSE,FALSE,FALSE,FALSE,FALSE,FALSE,FALSE,16,FALSE,FALSE,TRUE,FALSE,FALSE,FALSE,FALSE,FALSE,FALSE,2313,FALSE,FALSE,FALSE,FALSE,FALSE
completed,56.40000153,Luhrs Tower,Phoenix,Arizona,33.44694138,-112.0747986,FALSE,TRUE,1929,FALSE,FALSE,FALSE,FALSE,FALSE,FALSE,FALSE,14,FALSE,FALSE,FALSE,FALSE,FALSE,FALSE,FALSE,TRUE,FALSE,2312,FALSE,FALSE,FALSE,FALSE,FALSE
completed,56.40000153,165 Castleton Park Tower,New York City,New York,40.64628983,-74.08059692,FALSE,TRUE,1976,FALSE,FALSE,FALSE,FALSE,FALSE,FALSE,FALSE,20,FALSE,FALSE,FALSE,FALSE,FALSE,FALSE,FALSE,FALSE,FALSE,2311,FALSE,TRUE,FALSE,FALSE,FALSE
completed,56.68999863,The Coyote,Chicago,Illinois,41.9106102,-87.67810059,FALSE,TRUE,1928,FALSE,FALSE,FALSE,FALSE,FALSE,FALSE,FALSE,13,FALSE,FALSE,FALSE,FALSE,FALSE,FALSE,FALSE,TRUE,FALSE,2310,FALSE,FALSE,FALSE,FALSE,FALSE
completed,57.52999878,Kaleida Health GVI and UB CRTC,Buffalo,New York,42.90161896,-78.86595154,FALSE,TRUE,2012,FALSE,FALSE,FALSE,FALSE,FALSE,FALSE,FALSE,10,FALSE,TRUE,FALSE,FALSE,FALSE,FALSE,FALSE,FALSE,FALSE,2309,FALSE,FALSE,FALSE,FALSE,FALSE
completed,57.75999832,Clark and Grand Hotels,Chicago,Illinois,41.8914299,-87.63079834,FALSE,TRUE,2013,FALSE,FALSE,FALSE,FALSE,FALSE,FALSE,FALSE,19,FALSE,FALSE,TRUE,FALSE,FALSE,FALSE,FALSE,FALSE,FALSE,2308,FALSE,FALSE,FALSE,FALSE,FALSE
completed,57.90999985,Anthem Blue Cross,Los Angeles,California,34.18061829,-118.5994263,FALSE,FALSE,0,FALSE,FALSE,FALSE,FALSE,FALSE,FALSE,FALSE,13,FALSE,FALSE,FALSE,FALSE,FALSE,FALSE,FALSE,TRUE,FALSE,2307,FALSE,FALSE,FALSE,FALSE,FALSE
completed,57.912,101 Seaport,Boston,Massachusetts,42.35118866,-71.0453186,FALSE,TRUE,2015,FALSE,FALSE,FALSE,FALSE,FALSE,FALSE,FALSE,17,FALSE,FALSE,FALSE,FALSE,FALSE,FALSE,FALSE,TRUE,FALSE,2412,FALSE,FALSE,FALSE,FALSE,FALSE
completed,58.22000122,Price Tower Arts Center,Bartlesville,Oklahoma,36.74782181,-95.97637939,FALSE,TRUE,1956,FALSE,FALSE,FALSE,FALSE,FALSE,FALSE,FALSE,19,FALSE,FALSE,TRUE,FALSE,FALSE,FALSE,FALSE,TRUE,FALSE,2305,FALSE,TRUE,FALSE,FALSE,FALSE
completed,58.22000122,The Ken Garff Building,Salt Lake City,Utah,40.76042175,-111.8906784,FALSE,TRUE,1967,FALSE,FALSE,FALSE,FALSE,FALSE,FALSE,FALSE,12,FALSE,FALSE,FALSE,FALSE,FALSE,FALSE,FALSE,TRUE,FALSE,2306,FALSE,FALSE,FALSE,FALSE,FALSE
completed,58.34999847,R+D 659,Chicago,Illinois,41.88410187,-87.64479065,FALSE,TRUE,2009,FALSE,FALSE,FALSE,FALSE,FALSE,FALSE,FALSE,17,FALSE,FALSE,FALSE,FALSE,FALSE,FALSE,FALSE,FALSE,FALSE,2304,FALSE,TRUE,TRUE,FALSE,FALSE
completed,58.7502,The Fifth,Royal Oak,Michigan,42.48656082,-83.14692688,FALSE,TRUE,2007,FALSE,FALSE,FALSE,FALSE,FALSE,FALSE,FALSE,18,FALSE,FALSE,FALSE,FALSE,FALSE,FALSE,FALSE,FALSE,FALSE,2407,FALSE,TRUE,FALSE,FALSE,FALSE
completed,60,BB&T Building,Miami,Florida,25.761999,-80.192345,FALSE,TRUE,1985,FALSE,FALSE,FALSE,FALSE,FALSE,FALSE,FALSE,0,FALSE,FALSE,FALSE,FALSE,FALSE,FALSE,FALSE,TRUE,FALSE,2303,FALSE,FALSE,FALSE,FALSE,FALSE
completed,60.04999924,Monadnock Building,Chicago,Illinois,41.87746811,-87.62957001,FALSE,TRUE,1893,FALSE,FALSE,FALSE,FALSE,FALSE,FALSE,FALSE,17,FALSE,FALSE,FALSE,FALSE,FALSE,FALSE,FALSE,TRUE,FALSE,2302,FALSE,FALSE,FALSE,FALSE,FALSE
completed,60.36999893,Ronald McDonald House,Chicago,Illinois,41.89152145,-87.62229919,FALSE,TRUE,2012,FALSE,FALSE,FALSE,FALSE,FALSE,FALSE,FALSE,15,FALSE,FALSE,FALSE,FALSE,FALSE,FALSE,FALSE,FALSE,FALSE,2301,FALSE,TRUE,FALSE,FALSE,FALSE
completed,60.40000153,Hooters Hotel Casino,Las Vegas,Nevada,36.09930038,-115.1678925,FALSE,TRUE,1973,FALSE,FALSE,FALSE,TRUE,FALSE,FALSE,FALSE,19,FALSE,FALSE,TRUE,FALSE,FALSE,FALSE,FALSE,FALSE,FALSE,2300,FALSE,FALSE,FALSE,FALSE,FALSE
completed,60.90000153,Vue20 Condominium,Chicago,Illinois,41.85655975,-87.62355042,FALSE,TRUE,2003,FALSE,FALSE,FALSE,FALSE,FALSE,FALSE,FALSE,19,FALSE,FALSE,FALSE,FALSE,FALSE,FALSE,FALSE,FALSE,FALSE,2298,FALSE,TRUE,FALSE,FALSE,FALSE
completed,60.95999908,Eleven55 Ripley,Silver Spring,Maryland,38.99266815,-77.02848053,FALSE,TRUE,2014,FALSE,FALSE,FALSE,FALSE,FALSE,FALSE,FALSE,21,FALSE,FALSE,FALSE,FALSE,FALSE,FALSE,FALSE,FALSE,FALSE,2296,FALSE,TRUE,FALSE,FALSE,FALSE
completed,60.95999908,Macy's Store,New York City,New York,40.75082016,-73.98918915,FALSE,TRUE,1902,FALSE,FALSE,FALSE,FALSE,FALSE,FALSE,FALSE,11,FALSE,FALSE,FALSE,FALSE,FALSE,FALSE,FALSE,FALSE,FALSE,2297,FALSE,FALSE,TRUE,FALSE,FALSE
completed,61,Hilliard Homes 1,Chicago,Illinois,41.85456085,-87.62805176,FALSE,TRUE,1966,FALSE,FALSE,FALSE,FALSE,FALSE,FALSE,FALSE,22,FALSE,FALSE,FALSE,FALSE,FALSE,FALSE,FALSE,FALSE,FALSE,2294,FALSE,TRUE,FALSE,FALSE,FALSE
completed,61,Hilliard Homes 2,Chicago,Illinois,41.85454941,-87.62896729,FALSE,TRUE,1966,FALSE,FALSE,FALSE,FALSE,FALSE,FALSE,FALSE,22,FALSE,FALSE,FALSE,FALSE,FALSE,FALSE,FALSE,FALSE,FALSE,2294,FALSE,TRUE,FALSE,FALSE,FALSE
completed,61.25999832,Two Eldridge Place,Houston,Texas,29.77667046,-95.61891174,FALSE,TRUE,1986,FALSE,FALSE,FALSE,FALSE,FALSE,FALSE,FALSE,14,FALSE,FALSE,FALSE,FALSE,FALSE,FALSE,FALSE,TRUE,FALSE,2293,FALSE,FALSE,FALSE,FALSE,FALSE
completed,61.47000122,Reliance Building,Chicago,Illinois,41.88304901,-87.62824249,FALSE,TRUE,1895,FALSE,FALSE,FALSE,FALSE,FALSE,FALSE,FALSE,15,FALSE,FALSE,TRUE,FALSE,FALSE,FALSE,FALSE,FALSE,FALSE,2292,FALSE,FALSE,FALSE,FALSE,FALSE
completed,61.59999847,The Crimson,Miami,Florida,25.80315018,-80.18660736,FALSE,TRUE,2015,FALSE,FALSE,FALSE,FALSE,FALSE,FALSE,FALSE,18,FALSE,FALSE,FALSE,FALSE,FALSE,FALSE,FALSE,FALSE,FALSE,2291,FALSE,TRUE,FALSE,FALSE,FALSE
completed,61.86999893,Threefoot Building,Meridian,Mississippi,32.364608,-88.700751,TRUE,TRUE,1929,FALSE,FALSE,FALSE,FALSE,FALSE,FALSE,FALSE,16,FALSE,FALSE,FALSE,FALSE,FALSE,FALSE,FALSE,FALSE,FALSE,2290,FALSE,FALSE,FALSE,FALSE,FALSE
completed,62.18000031,Hyatt Regency St. Louis Riverfront,St. Louis,Missouri,38.62623978,-90.18800354,FALSE,TRUE,1907,FALSE,FALSE,FALSE,FALSE,FALSE,FALSE,FALSE,17,FALSE,FALSE,TRUE,FALSE,FALSE,FALSE,FALSE,FALSE,FALSE,2288,FALSE,FALSE,FALSE,FALSE,FALSE
completed,62.47999954,One Texas Tower,El Paso,Texas,31.75844002,-106.4883881,FALSE,TRUE,1921,FALSE,FALSE,FALSE,FALSE,FALSE,FALSE,FALSE,15,FALSE,FALSE,FALSE,FALSE,FALSE,FALSE,FALSE,FALSE,FALSE,2287,FALSE,FALSE,FALSE,FALSE,FALSE
completed,63.11999893,Sullivan Center,Chicago,Illinois,41.88167191,-87.62741089,FALSE,TRUE,1903,FALSE,FALSE,FALSE,FALSE,FALSE,FALSE,FALSE,12,FALSE,FALSE,FALSE,FALSE,FALSE,FALSE,FALSE,TRUE,FALSE,2286,FALSE,FALSE,TRUE,FALSE,FALSE
completed,63.20000076,Radisson Hotel Fargo,Fargo,North Dakota,46.87823105,-96.78579712,FALSE,TRUE,1985,FALSE,FALSE,FALSE,FALSE,FALSE,FALSE,FALSE,18,FALSE,FALSE,TRUE,FALSE,FALSE,FALSE,FALSE,FALSE,FALSE,2285,FALSE,FALSE,FALSE,FALSE,FALSE
completed,63.29999924,185 Castleton Park Tower,New York City,New York,40.64564133,-74.07974243,FALSE,TRUE,1976,FALSE,FALSE,FALSE,FALSE,FALSE,FALSE,FALSE,20,FALSE,FALSE,FALSE,FALSE,FALSE,FALSE,FALSE,FALSE,FALSE,2284,FALSE,TRUE,FALSE,FALSE,FALSE
completed,64,Coit Tower,San Francisco,California,37.80237961,-122.4058304,FALSE,TRUE,1933,FALSE,FALSE,FALSE,FALSE,FALSE,FALSE,FALSE,13,FALSE,FALSE,FALSE,FALSE,FALSE,FALSE,TRUE,FALSE,FALSE,2282,FALSE,FALSE,FALSE,FALSE,FALSE
completed,64,375 Hudson Street,New York City,New York,40.7285614,-74.00791168,FALSE,TRUE,1989,FALSE,FALSE,FALSE,FALSE,FALSE,FALSE,FALSE,19,FALSE,FALSE,FALSE,FALSE,FALSE,FALSE,FALSE,TRUE,FALSE,2280,FALSE,FALSE,FALSE,FALSE,FALSE
completed,64,52 East 4th Street,New York City,New York,40.72653961,-73.99124908,FALSE,TRUE,2009,FALSE,FALSE,FALSE,FALSE,FALSE,FALSE,FALSE,15,FALSE,FALSE,FALSE,FALSE,FALSE,FALSE,FALSE,FALSE,FALSE,2281,FALSE,TRUE,FALSE,FALSE,FALSE
completed,64.40000153,Hyatt Place,Chicago,Illinois,41.88275146,-87.6355896,FALSE,TRUE,2015,FALSE,FALSE,FALSE,FALSE,FALSE,FALSE,FALSE,17,FALSE,FALSE,TRUE,FALSE,FALSE,FALSE,FALSE,FALSE,FALSE,2279,FALSE,FALSE,FALSE,FALSE,FALSE
completed,64.62000275,Phoenix Mutual Life Insurance Building,Hartford,Conneticut,41.7652092,-72.67046356,FALSE,TRUE,1964,FALSE,FALSE,FALSE,FALSE,FALSE,FALSE,FALSE,14,FALSE,FALSE,FALSE,FALSE,FALSE,FALSE,FALSE,TRUE,FALSE,2278,FALSE,FALSE,FALSE,FALSE,FALSE
completed,64.91999817,Three Eldridge Place,Houston,Texas,29.7758007,-95.6191864,FALSE,TRUE,2009,FALSE,FALSE,FALSE,FALSE,FALSE,FALSE,FALSE,13,FALSE,FALSE,FALSE,FALSE,FALSE,FALSE,FALSE,TRUE,FALSE,2276,FALSE,FALSE,FALSE,FALSE,FALSE
completed,65,Jones Hall,Jersey City,New Jersey,40.72294998,-74.06239319,FALSE,TRUE,1939,FALSE,FALSE,FALSE,FALSE,FALSE,FALSE,FALSE,14,FALSE,FALSE,FALSE,FALSE,FALSE,FALSE,FALSE,FALSE,FALSE,2418,FALSE,TRUE,FALSE,FALSE,FALSE
completed,65,Buffalo General Hospital Building A,Buffalo,New York,42.9007988,-78.86646271,FALSE,TRUE,1986,FALSE,FALSE,FALSE,FALSE,FALSE,FALSE,FALSE,16,FALSE,TRUE,FALSE,FALSE,FALSE,FALSE,FALSE,FALSE,FALSE,2415,FALSE,FALSE,FALSE,FALSE,FALSE
completed,65.83999634,Pointe 400,St. Louis,Missouri,38.62144089,-90.18984222,FALSE,TRUE,1967,FALSE,FALSE,FALSE,FALSE,FALSE,FALSE,FALSE,15,FALSE,FALSE,FALSE,FALSE,FALSE,FALSE,FALSE,FALSE,FALSE,2273,FALSE,TRUE,FALSE,FALSE,FALSE
completed,65.83999634,Park Lafayette North Tower,Milwaukee,Wisconsin,43.0566597,-87.88646698,FALSE,TRUE,2009,FALSE,FALSE,FALSE,FALSE,FALSE,FALSE,FALSE,20,FALSE,FALSE,FALSE,FALSE,FALSE,FALSE,FALSE,FALSE,FALSE,2271,FALSE,TRUE,FALSE,FALSE,FALSE
completed,65.83999634,Park Lafayette South Tower,Milwaukee,Wisconsin,43.05612946,-87.88648987,FALSE,TRUE,2009,FALSE,FALSE,FALSE,FALSE,FALSE,FALSE,FALSE,20,FALSE,FALSE,FALSE,FALSE,FALSE,FALSE,FALSE,FALSE,FALSE,2271,FALSE,TRUE,FALSE,FALSE,FALSE
completed,66,Troy Boston,Boston,Massachusetts,42.34449005,-71.06247711,FALSE,TRUE,2015,FALSE,FALSE,FALSE,FALSE,FALSE,FALSE,FALSE,19,FALSE,FALSE,FALSE,FALSE,FALSE,FALSE,FALSE,FALSE,FALSE,2401,FALSE,TRUE,FALSE,FALSE,FALSE
completed,66.16999817,170 Amsterdam Avenue,New York City,New York,40.77595139,-73.98397064,FALSE,TRUE,2014,FALSE,FALSE,FALSE,FALSE,FALSE,FALSE,FALSE,20,FALSE,FALSE,FALSE,FALSE,FALSE,FALSE,FALSE,FALSE,FALSE,2270,FALSE,TRUE,FALSE,FALSE,FALSE
completed,66.44999695,Sheraton Denver Downtown Hotel,Denver,Colorado,39.74187851,-104.989212,FALSE,TRUE,1960,FALSE,FALSE,FALSE,FALSE,FALSE,FALSE,FALSE,22,FALSE,FALSE,TRUE,FALSE,FALSE,FALSE,FALSE,FALSE,FALSE,2268,FALSE,FALSE,FALSE,FALSE,FALSE
completed,66.44999695,Vassar Square Condominiums,Ventnor City,New Jersey,39.3434906,-74.46505737,FALSE,TRUE,1969,FALSE,FALSE,FALSE,FALSE,FALSE,FALSE,FALSE,21,FALSE,FALSE,FALSE,FALSE,FALSE,FALSE,FALSE,FALSE,FALSE,2269,FALSE,TRUE,FALSE,FALSE,FALSE
completed,66.5,Two River Place,Chicago,Illinois,41.89519882,-87.64337158,FALSE,TRUE,2004,FALSE,FALSE,FALSE,FALSE,FALSE,FALSE,FALSE,17,FALSE,FALSE,FALSE,FALSE,FALSE,FALSE,FALSE,FALSE,FALSE,2266,FALSE,TRUE,FALSE,FALSE,FALSE
completed,66.80000305,Dwight Building,Chicago,Illinois,41.87369156,-87.6309967,FALSE,TRUE,2008,FALSE,FALSE,FALSE,FALSE,FALSE,FALSE,FALSE,16,FALSE,FALSE,FALSE,FALSE,FALSE,FALSE,FALSE,FALSE,FALSE,2265,FALSE,TRUE,FALSE,FALSE,FALSE
completed,67,Capitol Records Building,Los Angeles,California,34.10316086,-118.3264008,FALSE,TRUE,1956,FALSE,FALSE,FALSE,FALSE,FALSE,FALSE,FALSE,13,FALSE,FALSE,FALSE,FALSE,FALSE,FALSE,FALSE,TRUE,FALSE,2264,FALSE,FALSE,FALSE,FALSE,FALSE
completed,67.537584,Joshua Arms,Joliet,Illinois,41.49971008,-88.06237793,FALSE,FALSE,0,FALSE,FALSE,FALSE,FALSE,FALSE,FALSE,FALSE,18,FALSE,FALSE,FALSE,FALSE,FALSE,FALSE,FALSE,FALSE,FALSE,2407,FALSE,TRUE,FALSE,FALSE,FALSE
completed,67.65000153,University Club,Chicago,Illinois,41.88103104,-87.62493896,FALSE,TRUE,1909,FALSE,FALSE,FALSE,FALSE,FALSE,FALSE,FALSE,14,FALSE,FALSE,FALSE,FALSE,FALSE,FALSE,FALSE,TRUE,TRUE,2261,FALSE,FALSE,FALSE,FALSE,FALSE
completed,67.857624,Binghamton State Office Building,Binghamton,New York,42.09616852,-75.91140747,FALSE,TRUE,1972,FALSE,FALSE,FALSE,FALSE,FALSE,FALSE,FALSE,18,TRUE,FALSE,FALSE,FALSE,FALSE,FALSE,FALSE,FALSE,FALSE,2407,FALSE,FALSE,FALSE,FALSE,FALSE
completed,67.97000122,Neuhaus Tower,McAllen,Lousiana,26.20195007,-98.23139191,FALSE,TRUE,1980,FALSE,FALSE,FALSE,FALSE,FALSE,FALSE,FALSE,17,FALSE,FALSE,FALSE,FALSE,FALSE,FALSE,FALSE,TRUE,FALSE,2259,FALSE,FALSE,FALSE,FALSE,FALSE
completed,68.30000305,Barnett National Bank Building,Jacksonville,Florida,30.32789993,-81.65930939,FALSE,TRUE,1926,FALSE,FALSE,FALSE,FALSE,FALSE,FALSE,FALSE,18,FALSE,FALSE,FALSE,FALSE,FALSE,FALSE,FALSE,TRUE,FALSE,2258,FALSE,FALSE,FALSE,FALSE,FALSE
completed,68.40000153,Cudahy Tower,Milwaukee,Wisconsin,43.0413208,-87.89958191,FALSE,TRUE,1928,FALSE,FALSE,FALSE,FALSE,FALSE,FALSE,FALSE,16,FALSE,FALSE,FALSE,FALSE,FALSE,FALSE,FALSE,TRUE,FALSE,2257,FALSE,TRUE,FALSE,FALSE,FALSE
completed,68.58000183,315 on A,Boston,Massachusetts,42.34865189,-71.04821014,FALSE,TRUE,2014,FALSE,FALSE,FALSE,FALSE,FALSE,FALSE,FALSE,20,FALSE,FALSE,FALSE,FALSE,FALSE,FALSE,FALSE,FALSE,FALSE,2256,FALSE,TRUE,FALSE,FALSE,FALSE
completed,69,Monroe Building,Chicago,Illinois,41.88061905,-87.62490845,FALSE,TRUE,1912,FALSE,FALSE,FALSE,FALSE,FALSE,FALSE,FALSE,16,FALSE,FALSE,FALSE,FALSE,FALSE,FALSE,FALSE,TRUE,FALSE,2255,FALSE,FALSE,FALSE,FALSE,FALSE
completed,69.284088,The Atlantis Condominiums,Miami,Florida,25.75297928,-80.19859314,FALSE,TRUE,1982,FALSE,FALSE,FALSE,FALSE,FALSE,FALSE,FALSE,20,FALSE,FALSE,FALSE,FALSE,FALSE,FALSE,FALSE,FALSE,FALSE,2396,FALSE,TRUE,FALSE,FALSE,FALSE
completed,69.48999786,Bank of America Building,New York City,New York,40.75954056,-73.97863007,FALSE,TRUE,1938,FALSE,FALSE,FALSE,FALSE,FALSE,FALSE,FALSE,17,FALSE,FALSE,FALSE,FALSE,FALSE,FALSE,FALSE,TRUE,FALSE,2254,FALSE,FALSE,FALSE,FALSE,FALSE
completed,69.5,Underwood Building,New York City,New York,40.7121582,-74.00993347,FALSE,TRUE,1912,FALSE,FALSE,FALSE,FALSE,TRUE,FALSE,FALSE,18,FALSE,FALSE,FALSE,FALSE,FALSE,FALSE,FALSE,FALSE,FALSE,2252,FALSE,FALSE,FALSE,FALSE,FALSE
completed,69.5,10 Rockefeller Plaza,New York City,New York,40.7583313,-73.979599,FALSE,TRUE,1940,FALSE,FALSE,FALSE,FALSE,FALSE,FALSE,FALSE,17,FALSE,FALSE,FALSE,FALSE,FALSE,FALSE,FALSE,TRUE,FALSE,2253,FALSE,FALSE,FALSE,FALSE,FALSE
completed,69.5,Cambria Suites Hotel,New York City,New York,40.75222015,-73.99513245,FALSE,TRUE,2009,FALSE,FALSE,FALSE,FALSE,FALSE,FALSE,FALSE,22,FALSE,FALSE,TRUE,FALSE,FALSE,FALSE,FALSE,FALSE,FALSE,2250,FALSE,FALSE,FALSE,FALSE,FALSE
completed,69.5,QLIC,New York City,New York,40.75168991,-73.94129944,FALSE,TRUE,2015,FALSE,FALSE,FALSE,FALSE,FALSE,FALSE,FALSE,21,FALSE,FALSE,FALSE,FALSE,FALSE,FALSE,FALSE,FALSE,FALSE,2251,FALSE,TRUE,FALSE,FALSE,FALSE
completed,70.09999847,Michigan Central Station,Detroit,Michigan,42.32878113,-83.07769775,FALSE,TRUE,1913,FALSE,FALSE,FALSE,FALSE,FALSE,FALSE,FALSE,18,FALSE,FALSE,FALSE,FALSE,FALSE,FALSE,FALSE,TRUE,FALSE,2247,FALSE,FALSE,FALSE,FALSE,FALSE
completed,70.09999847,Tribeca Green,New York City,New York,40.71710968,-74.01499939,FALSE,TRUE,2005,FALSE,FALSE,FALSE,FALSE,FALSE,FALSE,FALSE,24,FALSE,FALSE,FALSE,FALSE,FALSE,FALSE,FALSE,FALSE,FALSE,2246,FALSE,TRUE,FALSE,FALSE,FALSE
completed,70.09999847,120 Riverside Boulevard at Trump Place,New York City,New York,40.77634048,-73.98912811,FALSE,TRUE,2004,FALSE,FALSE,FALSE,FALSE,FALSE,FALSE,FALSE,18,FALSE,FALSE,FALSE,FALSE,FALSE,FALSE,FALSE,FALSE,FALSE,2247,FALSE,TRUE,FALSE,FALSE,FALSE
completed,70.09999847,Buncombe County Courthouse,Asheville,North Carolina,35.59597015,-82.54859161,FALSE,TRUE,1928,FALSE,FALSE,FALSE,FALSE,FALSE,FALSE,FALSE,17,TRUE,FALSE,FALSE,FALSE,FALSE,FALSE,FALSE,FALSE,FALSE,2249,FALSE,FALSE,FALSE,FALSE,FALSE
completed,70.104,The Ellington,Philadelphia,Pennsylvania,39.95082092,-75.16589355,FALSE,TRUE,1923,FALSE,FALSE,FALSE,FALSE,FALSE,FALSE,FALSE,21,FALSE,FALSE,FALSE,FALSE,FALSE,FALSE,FALSE,FALSE,FALSE,2393,FALSE,TRUE,FALSE,FALSE,FALSE
completed,70.40000153,160 East 22nd Street,New York City,New York,40.73810959,-73.98403931,FALSE,TRUE,2014,FALSE,FALSE,FALSE,FALSE,FALSE,FALSE,FALSE,21,FALSE,FALSE,FALSE,FALSE,FALSE,FALSE,FALSE,FALSE,FALSE,2245,FALSE,TRUE,FALSE,FALSE,FALSE
completed,70.5,The John and Frances Angelos Law Center,Baltimore,Maryland,39.30590057,-76.61585999,FALSE,TRUE,2013,FALSE,FALSE,FALSE,FALSE,FALSE,TRUE,FALSE,12,FALSE,FALSE,FALSE,FALSE,FALSE,FALSE,FALSE,FALSE,FALSE,2244,FALSE,FALSE,FALSE,FALSE,FALSE
completed,70.70999908,The Anthem,New York City,New York,40.74501038,-73.97701263,FALSE,TRUE,2003,FALSE,FALSE,FALSE,FALSE,FALSE,FALSE,FALSE,21,FALSE,FALSE,FALSE,FALSE,FALSE,FALSE,FALSE,FALSE,FALSE,2242,FALSE,TRUE,FALSE,FALSE,FALSE
completed,70.70999908,1312-1314 Chestnut Street,Philadelphia,Pennsylvania,39.95045853,-75.16229248,FALSE,TRUE,1924,FALSE,FALSE,FALSE,FALSE,FALSE,FALSE,FALSE,15,FALSE,FALSE,FALSE,FALSE,FALSE,FALSE,FALSE,TRUE,FALSE,2243,FALSE,FALSE,FALSE,FALSE,FALSE
completed,71.31999969,San Francisco Federal Building,San Francisco,California,37.77947998,-122.4123917,FALSE,TRUE,2007,FALSE,FALSE,FALSE,FALSE,FALSE,FALSE,FALSE,18,FALSE,FALSE,FALSE,FALSE,FALSE,FALSE,FALSE,TRUE,FALSE,2241,FALSE,FALSE,FALSE,FALSE,FALSE
completed,71.31999969,270 West 39th Street,New York City,New York,40.7550087,-73.99092102,FALSE,TRUE,1926,FALSE,FALSE,FALSE,FALSE,FALSE,FALSE,FALSE,20,FALSE,FALSE,FALSE,FALSE,FALSE,FALSE,FALSE,TRUE,FALSE,2240,FALSE,FALSE,FALSE,FALSE,FALSE
completed,71.59999847,Residences at New City,Chicago,Illinois,41.90805054,-87.64792633,FALSE,TRUE,2015,FALSE,FALSE,FALSE,FALSE,FALSE,FALSE,FALSE,19,FALSE,FALSE,FALSE,FALSE,FALSE,FALSE,FALSE,FALSE,FALSE,2239,FALSE,TRUE,FALSE,FALSE,FALSE
completed,72.01999664,Park Evanston Apartments,Evanston,Illinois,42.04729843,-87.67967987,FALSE,TRUE,1997,FALSE,FALSE,FALSE,FALSE,FALSE,FALSE,FALSE,24,FALSE,FALSE,FALSE,FALSE,FALSE,FALSE,FALSE,FALSE,FALSE,2236,FALSE,TRUE,FALSE,FALSE,FALSE
completed,72.02999878,Museum Park Tower II,Chicago,Illinois,41.86463928,-87.62059021,FALSE,TRUE,2009,FALSE,FALSE,FALSE,FALSE,FALSE,FALSE,FALSE,20,FALSE,FALSE,FALSE,FALSE,FALSE,FALSE,FALSE,FALSE,FALSE,2235,FALSE,TRUE,FALSE,FALSE,FALSE
completed,72.08999634,Wacker Tower,Chicago,Illinois,41.88702011,-87.62541962,TRUE,TRUE,1928,FALSE,FALSE,FALSE,FALSE,FALSE,FALSE,FALSE,17,FALSE,FALSE,FALSE,FALSE,FALSE,FALSE,FALSE,FALSE,FALSE,2234,FALSE,FALSE,FALSE,FALSE,FALSE
completed,72.16000366,One Rotary Center,Evanston,Illinois,42.04589844,-87.68225098,FALSE,TRUE,1977,FALSE,FALSE,FALSE,FALSE,FALSE,FALSE,FALSE,18,FALSE,FALSE,FALSE,FALSE,FALSE,FALSE,FALSE,TRUE,FALSE,2233,FALSE,FALSE,FALSE,FALSE,FALSE
completed,72.23999786,Union Trust Building,Pittsburgh,Pennsylvania,40.43991089,-79.99693298,FALSE,TRUE,1916,FALSE,FALSE,FALSE,FALSE,FALSE,FALSE,FALSE,15,FALSE,FALSE,FALSE,FALSE,FALSE,FALSE,FALSE,TRUE,FALSE,2232,FALSE,FALSE,FALSE,FALSE,FALSE
completed,72.5,The Bank Center,Pittsburgh,Pennsylvania,40.43943024,-80.00093842,FALSE,TRUE,1903,FALSE,FALSE,FALSE,FALSE,FALSE,FALSE,FALSE,16,FALSE,FALSE,FALSE,FALSE,FALSE,FALSE,FALSE,TRUE,FALSE,2231,FALSE,FALSE,FALSE,FALSE,FALSE
completed,72.62999725,Auditorium Building,Chicago,Illinois,41.87601089,-87.62483978,FALSE,TRUE,1889,FALSE,FALSE,FALSE,FALSE,FALSE,TRUE,FALSE,17,FALSE,FALSE,FALSE,FALSE,FALSE,FALSE,FALSE,FALSE,TRUE,2230,FALSE,FALSE,FALSE,FALSE,FALSE
completed,72.84999847,Hilton Garden Inn New York/Chelsea,New York City,New York,40.74663162,-73.99140167,FALSE,TRUE,2008,FALSE,FALSE,FALSE,FALSE,FALSE,FALSE,FALSE,23,FALSE,FALSE,TRUE,FALSE,FALSE,FALSE,FALSE,FALSE,FALSE,2228,FALSE,FALSE,FALSE,FALSE,FALSE
completed,72.84999847,Plaza Hotel,El Paso,Texas,31.75880051,-106.4885178,FALSE,TRUE,1930,FALSE,FALSE,FALSE,FALSE,FALSE,FALSE,FALSE,19,FALSE,FALSE,TRUE,FALSE,FALSE,FALSE,FALSE,FALSE,FALSE,2229,FALSE,FALSE,FALSE,FALSE,FALSE
completed,73.15000153,Gramercy Green,New York City,New York,40.73923111,-73.98316193,FALSE,TRUE,2007,FALSE,FALSE,FALSE,FALSE,FALSE,FALSE,FALSE,21,FALSE,FALSE,FALSE,FALSE,FALSE,FALSE,FALSE,FALSE,FALSE,2227,FALSE,TRUE,FALSE,FALSE,FALSE
completed,73.76000214,100 5th Avenue,New York City,New York,40.73701096,-73.9934082,FALSE,TRUE,1907,FALSE,FALSE,FALSE,FALSE,FALSE,FALSE,FALSE,16,FALSE,FALSE,FALSE,FALSE,FALSE,FALSE,FALSE,TRUE,FALSE,2224,FALSE,FALSE,FALSE,FALSE,FALSE
completed,73.76000214,North Dakota State Capitol,Bismarck,North Dakota,46.82078934,-100.7824478,FALSE,TRUE,1934,FALSE,FALSE,FALSE,FALSE,FALSE,FALSE,FALSE,19,TRUE,FALSE,FALSE,FALSE,FALSE,FALSE,FALSE,FALSE,FALSE,2223,FALSE,FALSE,FALSE,FALSE,FALSE
completed,73.76000214,The Tower at Carnegie Abbey,Portsmouth (RI),Rhode Island,41.61613083,-71.2696228,FALSE,TRUE,2009,FALSE,FALSE,FALSE,FALSE,FALSE,FALSE,FALSE,22,FALSE,FALSE,FALSE,FALSE,FALSE,FALSE,FALSE,FALSE,FALSE,2222,FALSE,TRUE,FALSE,FALSE,FALSE
completed,73.80000305,930 Poydras Residential Tower,New Orleans,Louisiana,29.95004082,-90.07417297,FALSE,TRUE,2010,FALSE,FALSE,FALSE,FALSE,FALSE,FALSE,FALSE,21,FALSE,FALSE,FALSE,FALSE,FALSE,FALSE,FALSE,FALSE,FALSE,2221,FALSE,TRUE,FALSE,FALSE,FALSE
completed,73.87999725,Rio Ipanema Tower,Las Vegas,Nevada,36.11748123,-115.1882706,FALSE,TRUE,1990,FALSE,FALSE,FALSE,TRUE,FALSE,FALSE,FALSE,20,FALSE,FALSE,TRUE,FALSE,FALSE,FALSE,FALSE,FALSE,FALSE,2220,FALSE,FALSE,FALSE,FALSE,FALSE
completed,74,SoNo East Tower,Chicago,Illinois,41.90898895,-87.65007782,FALSE,TRUE,2012,FALSE,FALSE,FALSE,FALSE,FALSE,FALSE,FALSE,22,FALSE,FALSE,FALSE,FALSE,FALSE,FALSE,FALSE,FALSE,FALSE,2219,FALSE,TRUE,FALSE,FALSE,FALSE
completed,74.087736,Humboldt Bank Building,San Francisco,California,37.78594971,-122.4053192,FALSE,TRUE,1908,FALSE,FALSE,FALSE,FALSE,FALSE,FALSE,FALSE,19,FALSE,FALSE,FALSE,FALSE,FALSE,FALSE,FALSE,TRUE,FALSE,2401,FALSE,FALSE,FALSE,FALSE,FALSE
completed,74.30000305,The Lofts at 1835 Arch Street,Philadelphia,Pennsylvania,39.95569992,-75.17085266,FALSE,TRUE,1925,FALSE,FALSE,FALSE,FALSE,FALSE,FALSE,FALSE,18,FALSE,FALSE,FALSE,FALSE,FALSE,FALSE,FALSE,FALSE,FALSE,2218,FALSE,TRUE,FALSE,FALSE,FALSE
completed,74.37000275,Hartford Plaza North,Chicago,Illinois,41.88029861,-87.63762665,FALSE,TRUE,1961,FALSE,FALSE,FALSE,FALSE,FALSE,FALSE,FALSE,20,FALSE,FALSE,FALSE,FALSE,FALSE,FALSE,FALSE,TRUE,FALSE,2216,FALSE,FALSE,FALSE,FALSE,FALSE
completed,74.37000275,100 Front Street,Worcester,Massachusetts,42.2625618,-71.7995224,FALSE,TRUE,1971,FALSE,FALSE,FALSE,FALSE,FALSE,FALSE,FALSE,20,FALSE,FALSE,FALSE,FALSE,FALSE,FALSE,FALSE,TRUE,FALSE,2216,FALSE,FALSE,FALSE,FALSE,FALSE
completed,74.37000275,80 Central Park West,New York City,New York,40.77396011,-73.97795105,FALSE,TRUE,1967,FALSE,FALSE,FALSE,FALSE,FALSE,FALSE,FALSE,24,FALSE,FALSE,FALSE,FALSE,FALSE,FALSE,FALSE,FALSE,FALSE,2215,FALSE,TRUE,FALSE,FALSE,FALSE
completed,74.40000153,100 Pier 4,Boston,Massachusetts,42.35137939,-71.04299164,FALSE,TRUE,2014,FALSE,FALSE,FALSE,FALSE,FALSE,FALSE,FALSE,21,FALSE,FALSE,FALSE,FALSE,FALSE,FALSE,FALSE,FALSE,FALSE,2214,FALSE,TRUE,FALSE,FALSE,FALSE
completed,74.66999817,Simon & Schuster Building,New York City,New York,40.75864029,-73.98053741,FALSE,TRUE,1939,FALSE,FALSE,FALSE,FALSE,FALSE,FALSE,FALSE,21,FALSE,FALSE,FALSE,FALSE,FALSE,FALSE,FALSE,TRUE,FALSE,2213,FALSE,FALSE,FALSE,FALSE,FALSE
completed,74.68000031,Ferry Building,San Francisco,California,37.79545975,-122.3935623,FALSE,TRUE,1898,FALSE,FALSE,FALSE,FALSE,FALSE,FALSE,FALSE,12,FALSE,FALSE,FALSE,FALSE,FALSE,FALSE,FALSE,TRUE,FALSE,2212,FALSE,FALSE,TRUE,FALSE,FALSE
completed,75,Nissen Building,Winston-Salem,North Carolina,36.097896,-80.247493,FALSE,TRUE,1927,FALSE,FALSE,FALSE,FALSE,FALSE,FALSE,FALSE,20,FALSE,FALSE,FALSE,FALSE,FALSE,FALSE,FALSE,FALSE,FALSE,2396,FALSE,TRUE,FALSE,FALSE,FALSE
completed,75,Market Square Plaza,Harrisburg,Pennsylvania,40.26047897,-76.88237,FALSE,TRUE,2005,FALSE,FALSE,FALSE,FALSE,FALSE,FALSE,FALSE,18,FALSE,FALSE,FALSE,FALSE,FALSE,FALSE,FALSE,TRUE,FALSE,2210,FALSE,FALSE,FALSE,FALSE,FALSE
completed,75,5000 Montrose Boulevard,Houston,Texas,29.72837067,-95.39138794,FALSE,TRUE,1981,FALSE,FALSE,FALSE,FALSE,FALSE,FALSE,FALSE,22,FALSE,FALSE,FALSE,FALSE,FALSE,FALSE,FALSE,FALSE,FALSE,2209,FALSE,TRUE,FALSE,FALSE,FALSE
completed,75.30000305,The Vermont East Tower,Los Angeles,California,34.06148148,-118.2904282,FALSE,TRUE,2014,FALSE,FALSE,FALSE,FALSE,FALSE,FALSE,FALSE,22,FALSE,FALSE,FALSE,FALSE,FALSE,FALSE,FALSE,FALSE,FALSE,2208,FALSE,TRUE,FALSE,FALSE,FALSE
completed,75.58999634,Landmark on the Lake,Milwaukee,Wisconsin,43.05165863,-87.89098358,FALSE,TRUE,1991,FALSE,FALSE,FALSE,FALSE,FALSE,FALSE,FALSE,28,FALSE,FALSE,FALSE,FALSE,FALSE,FALSE,FALSE,FALSE,FALSE,2207,FALSE,TRUE,FALSE,FALSE,FALSE
completed,75.59999847,Washington Athletic Club,Seattle,Washington,47.60982132,-122.3336868,FALSE,TRUE,1930,FALSE,FALSE,FALSE,FALSE,FALSE,FALSE,FALSE,22,FALSE,FALSE,TRUE,FALSE,FALSE,FALSE,FALSE,TRUE,FALSE,2206,FALSE,FALSE,FALSE,FALSE,FALSE
completed,75.80000305,Sheraton Columbus Hotel at Capitol Square,Columbus,Ohio,39.96006012,-82.99770355,FALSE,TRUE,1984,FALSE,FALSE,FALSE,FALSE,FALSE,FALSE,FALSE,21,FALSE,FALSE,TRUE,FALSE,FALSE,FALSE,FALSE,FALSE,FALSE,2205,FALSE,FALSE,FALSE,FALSE,FALSE
completed,76,5 Greenspoint Place,Houston,Texas,42.696148,-70.842236,FALSE,TRUE,1983,FALSE,FALSE,FALSE,FALSE,FALSE,FALSE,FALSE,19,FALSE,FALSE,FALSE,FALSE,FALSE,FALSE,FALSE,TRUE,FALSE,2204,FALSE,FALSE,FALSE,FALSE,FALSE
completed,76.19999695,The Caledonia,New York City,New York,40.74343872,-74.00624847,FALSE,TRUE,2008,FALSE,FALSE,FALSE,FALSE,FALSE,FALSE,FALSE,24,FALSE,FALSE,FALSE,FALSE,FALSE,FALSE,FALSE,FALSE,FALSE,2199,FALSE,TRUE,FALSE,FALSE,FALSE
completed,76.19999695,Main Seneca Building,Buffalo,New York,42.88066101,-78.87529755,FALSE,TRUE,1915,FALSE,FALSE,FALSE,FALSE,FALSE,FALSE,FALSE,16,FALSE,FALSE,FALSE,FALSE,FALSE,FALSE,FALSE,TRUE,FALSE,2203,FALSE,FALSE,FALSE,FALSE,FALSE
completed,76.19999695,Law and Finance Building,Pittsburgh,Pennsylvania,40.43851852,-79.99829102,FALSE,TRUE,1928,FALSE,FALSE,FALSE,FALSE,FALSE,FALSE,FALSE,21,FALSE,FALSE,FALSE,FALSE,FALSE,FALSE,FALSE,TRUE,FALSE,2200,FALSE,FALSE,FALSE,FALSE,FALSE
completed,76.19999695,Wisconsin Gas Building,Milwaukee,Wisconsin,43.03926086,-87.90312958,FALSE,TRUE,1930,FALSE,FALSE,FALSE,FALSE,FALSE,FALSE,FALSE,20,FALSE,FALSE,FALSE,FALSE,FALSE,FALSE,FALSE,TRUE,FALSE,2202,FALSE,FALSE,FALSE,FALSE,FALSE
completed,76.62999725,Narragansett Apartments,Chicago,Illinois,41.80463028,-87.58487701,FALSE,TRUE,1929,FALSE,FALSE,FALSE,FALSE,FALSE,FALSE,FALSE,22,FALSE,FALSE,FALSE,FALSE,FALSE,FALSE,FALSE,FALSE,FALSE,2198,FALSE,TRUE,FALSE,FALSE,FALSE
completed,76.80000305,Benedum-Trees Building,Pittsburgh,Pennsylvania,40.43991089,-80.0021286,FALSE,TRUE,1906,FALSE,FALSE,FALSE,FALSE,FALSE,FALSE,FALSE,19,FALSE,FALSE,FALSE,FALSE,FALSE,FALSE,FALSE,TRUE,FALSE,2196,FALSE,FALSE,FALSE,FALSE,FALSE
completed,76.95999908,Rush University Medical Center Hospital Tower,Chicago,Illinois,41.87469864,-87.66721344,FALSE,TRUE,2012,FALSE,FALSE,FALSE,FALSE,FALSE,FALSE,FALSE,14,FALSE,TRUE,FALSE,FALSE,FALSE,FALSE,FALSE,FALSE,FALSE,2195,FALSE,FALSE,FALSE,FALSE,FALSE
completed,77,Key Bank Building,Columbus,Ohio,39.96295929,-82.99820709,FALSE,TRUE,1963,FALSE,FALSE,FALSE,FALSE,FALSE,FALSE,FALSE,21,FALSE,FALSE,FALSE,FALSE,FALSE,FALSE,FALSE,TRUE,FALSE,2194,FALSE,FALSE,FALSE,FALSE,FALSE
completed,77,Encore Condominiums,Nashville,Tennessee,36.15901947,-86.77471161,FALSE,TRUE,2008,FALSE,FALSE,FALSE,FALSE,FALSE,FALSE,FALSE,21,FALSE,FALSE,FALSE,FALSE,FALSE,FALSE,FALSE,FALSE,FALSE,2393,FALSE,TRUE,TRUE,FALSE,FALSE
completed,77.11000061,6565 MD Anderson Boulevard,Houston,Texas,29.7081604,-95.39511108,FALSE,TRUE,2014,FALSE,FALSE,FALSE,FALSE,FALSE,FALSE,FALSE,13,FALSE,TRUE,FALSE,FALSE,FALSE,FALSE,FALSE,TRUE,FALSE,2193,FALSE,FALSE,FALSE,FALSE,FALSE
completed,77.12000275,West Ocean Condominiums II,Long Beach,California,33.76612854,-118.19664,FALSE,TRUE,2007,FALSE,FALSE,FALSE,FALSE,FALSE,FALSE,FALSE,0,FALSE,FALSE,FALSE,FALSE,FALSE,FALSE,FALSE,FALSE,FALSE,2192,FALSE,TRUE,FALSE,FALSE,FALSE
completed,77.12000275,Commonwealth Promenade I,Chicago,Illinois,41.93307877,-87.63855743,FALSE,TRUE,1956,FALSE,FALSE,FALSE,FALSE,FALSE,FALSE,FALSE,27,FALSE,FALSE,FALSE,FALSE,FALSE,FALSE,FALSE,FALSE,FALSE,2190,FALSE,TRUE,FALSE,FALSE,FALSE
completed,77.12000275,Commonwealth Promenade II,Chicago,Illinois,41.93336105,-87.63899994,FALSE,TRUE,1956,FALSE,FALSE,FALSE,FALSE,FALSE,FALSE,FALSE,27,FALSE,FALSE,FALSE,FALSE,FALSE,FALSE,FALSE,FALSE,FALSE,2190,FALSE,TRUE,FALSE,FALSE,FALSE
completed,77.41999817,Hilton Garden Inn,Chicago,Illinois,41.88702011,-87.62558746,FALSE,TRUE,2015,FALSE,FALSE,FALSE,FALSE,FALSE,FALSE,FALSE,25,FALSE,FALSE,TRUE,FALSE,FALSE,FALSE,FALSE,FALSE,FALSE,2188,FALSE,FALSE,FALSE,FALSE,FALSE
completed,77.72000122,Federal Office Building,New York City,New York,40.71276093,-74.01074219,FALSE,TRUE,1935,FALSE,FALSE,FALSE,FALSE,FALSE,FALSE,FALSE,17,TRUE,FALSE,FALSE,FALSE,FALSE,FALSE,FALSE,FALSE,FALSE,2185,FALSE,FALSE,FALSE,FALSE,FALSE
completed,77.72000122,The James New York,New York City,New York,40.72254944,-74.00488281,FALSE,TRUE,2010,FALSE,FALSE,FALSE,FALSE,FALSE,FALSE,FALSE,17,FALSE,FALSE,TRUE,FALSE,FALSE,FALSE,FALSE,FALSE,FALSE,2185,FALSE,FALSE,FALSE,FALSE,FALSE
completed,77.72000122,One Place Tower,Tulsa,Oklahoma,36.15306091,-95.99434662,FALSE,TRUE,2013,FALSE,FALSE,FALSE,FALSE,FALSE,FALSE,FALSE,17,FALSE,FALSE,FALSE,FALSE,FALSE,FALSE,FALSE,TRUE,FALSE,2185,FALSE,FALSE,FALSE,FALSE,FALSE
completed,77.72000122,The Martin,Seattle,Washington,47.61447906,-122.3410721,FALSE,TRUE,2013,FALSE,FALSE,FALSE,FALSE,FALSE,FALSE,FALSE,23,FALSE,FALSE,FALSE,FALSE,FALSE,FALSE,FALSE,FALSE,FALSE,2184,FALSE,TRUE,FALSE,FALSE,FALSE
completed,78,Freedom Tower,Miami,Florida,25.78031921,-80.18943024,FALSE,TRUE,1925,FALSE,FALSE,FALSE,FALSE,FALSE,FALSE,FALSE,17,FALSE,FALSE,FALSE,FALSE,FALSE,FALSE,FALSE,TRUE,FALSE,2183,FALSE,FALSE,FALSE,FALSE,FALSE
completed,78,The Carillon Hotel & Spa South Tower,Miami Beach,Florida,25.85360909,-80.11975861,FALSE,TRUE,2008,FALSE,FALSE,FALSE,FALSE,FALSE,FALSE,FALSE,22,FALSE,FALSE,TRUE,FALSE,FALSE,FALSE,FALSE,FALSE,FALSE,2180,FALSE,TRUE,FALSE,FALSE,FALSE
completed,78,1410 North State Parkway,Chicago,Illinois,41.90829086,-87.62921143,FALSE,TRUE,1981,FALSE,FALSE,FALSE,FALSE,FALSE,FALSE,FALSE,26,FALSE,FALSE,FALSE,FALSE,FALSE,FALSE,FALSE,FALSE,FALSE,2179,FALSE,TRUE,FALSE,FALSE,FALSE
completed,78,Arrott Building,Pittsburgh,Pennsylvania,40.43962097,-80.001297,FALSE,TRUE,1902,FALSE,FALSE,FALSE,FALSE,FALSE,FALSE,FALSE,18,FALSE,FALSE,FALSE,FALSE,FALSE,FALSE,FALSE,TRUE,FALSE,2182,FALSE,FALSE,FALSE,FALSE,FALSE
completed,78.02999878,55 West Wacker,Chicago,Illinois,41.88648987,-87.62989044,FALSE,TRUE,1968,FALSE,FALSE,FALSE,FALSE,FALSE,FALSE,FALSE,16,FALSE,FALSE,FALSE,FALSE,FALSE,FALSE,FALSE,TRUE,FALSE,2178,FALSE,FALSE,FALSE,FALSE,FALSE
completed,78.09999847,J.W. Marriott Grand Rapids,Grand Rapids,Iowa,42.96582031,-85.67430115,FALSE,TRUE,2007,FALSE,FALSE,FALSE,FALSE,FALSE,FALSE,FALSE,25,FALSE,FALSE,TRUE,FALSE,FALSE,FALSE,FALSE,FALSE,FALSE,2177,FALSE,FALSE,FALSE,FALSE,FALSE
completed,78.63999939,West Sixth Tempe Tower 1,Tempe,Arizona,33.425214,-111.941132,FALSE,TRUE,2011,FALSE,FALSE,FALSE,FALSE,FALSE,FALSE,FALSE,22,FALSE,FALSE,FALSE,FALSE,FALSE,FALSE,FALSE,FALSE,FALSE,2176,FALSE,TRUE,FALSE,FALSE,FALSE
completed,78.87000275,899 South Plymouth Court,Chicago,Illinois,41.87080002,-87.62796783,FALSE,TRUE,1980,FALSE,FALSE,FALSE,FALSE,FALSE,FALSE,FALSE,27,FALSE,FALSE,FALSE,FALSE,FALSE,FALSE,FALSE,FALSE,FALSE,2175,FALSE,TRUE,FALSE,FALSE,FALSE
completed,78.90000153,Museum Park Place 1,Chicago,Illinois,41.85712051,-87.6187973,FALSE,TRUE,2007,FALSE,FALSE,FALSE,FALSE,FALSE,FALSE,FALSE,23,FALSE,FALSE,FALSE,FALSE,FALSE,FALSE,FALSE,FALSE,FALSE,2173,FALSE,TRUE,FALSE,FALSE,FALSE
completed,78.90000153,McKay Tower,Grand Rapids,Iowa,42.96620178,-85.67144012,FALSE,TRUE,1927,FALSE,FALSE,FALSE,FALSE,FALSE,FALSE,FALSE,18,FALSE,FALSE,FALSE,FALSE,FALSE,FALSE,FALSE,TRUE,FALSE,2174,FALSE,FALSE,FALSE,FALSE,FALSE
completed,78.94000244,Santa Fe Building,Chicago,Illinois,41.87858963,-87.6248703,FALSE,TRUE,1904,FALSE,FALSE,FALSE,FALSE,FALSE,FALSE,FALSE,17,FALSE,FALSE,FALSE,FALSE,FALSE,FALSE,FALSE,TRUE,FALSE,2172,FALSE,FALSE,FALSE,FALSE,FALSE
completed,78.94000244,Brady Sullivan Plaza,Manchester (NH),New Hampshire,42.99290085,-71.46341705,FALSE,TRUE,1973,FALSE,FALSE,FALSE,FALSE,FALSE,FALSE,FALSE,20,FALSE,FALSE,FALSE,FALSE,FALSE,FALSE,FALSE,TRUE,FALSE,2171,FALSE,FALSE,FALSE,FALSE,FALSE
completed,79,MEi Miami Beach Ocean Front,Miami Beach,Florida,25.84087944,-80.12055206,FALSE,TRUE,2008,FALSE,FALSE,FALSE,FALSE,FALSE,FALSE,FALSE,22,FALSE,FALSE,FALSE,FALSE,FALSE,FALSE,FALSE,FALSE,FALSE,2170,FALSE,TRUE,FALSE,FALSE,FALSE
completed,79.19999695,Sunset and Gordon,Los Angeles,California,34.09846115,-118.3193512,FALSE,TRUE,2015,FALSE,FALSE,FALSE,FALSE,FALSE,FALSE,FALSE,23,FALSE,FALSE,FALSE,FALSE,FALSE,FALSE,FALSE,FALSE,FALSE,2169,FALSE,TRUE,FALSE,FALSE,FALSE
completed,79.25,Morrill Tower,Columbus,Ohio,40,-83.02191925,FALSE,TRUE,1967,FALSE,FALSE,FALSE,FALSE,FALSE,FALSE,FALSE,24,FALSE,FALSE,FALSE,FALSE,FALSE,FALSE,FALSE,FALSE,FALSE,2164,FALSE,TRUE,FALSE,FALSE,FALSE
completed,79.25,Lincoln Tower,Columbus,Ohio,39.99845123,-83.02207184,FALSE,TRUE,1967,FALSE,FALSE,FALSE,FALSE,FALSE,FALSE,FALSE,24,FALSE,FALSE,FALSE,FALSE,FALSE,FALSE,FALSE,FALSE,FALSE,2164,FALSE,TRUE,FALSE,FALSE,FALSE
completed,79.25,Allegheny Building,Pittsburgh,Pennsylvania,40.43915939,-79.99780273,FALSE,TRUE,1906,FALSE,FALSE,FALSE,FALSE,FALSE,FALSE,FALSE,19,FALSE,FALSE,FALSE,FALSE,FALSE,FALSE,FALSE,TRUE,FALSE,2167,FALSE,FALSE,FALSE,FALSE,FALSE
completed,79.25,The BreakWater,Milwaukee,Wisconsin,43.04721832,-87.89720154,FALSE,TRUE,2009,FALSE,FALSE,FALSE,FALSE,FALSE,FALSE,FALSE,21,FALSE,FALSE,FALSE,FALSE,FALSE,FALSE,FALSE,FALSE,FALSE,2166,FALSE,TRUE,FALSE,FALSE,FALSE
completed,79.5,The Standard,New York City,New York,40.74095917,-74.00814056,FALSE,TRUE,2009,FALSE,FALSE,FALSE,FALSE,FALSE,FALSE,FALSE,19,FALSE,FALSE,TRUE,FALSE,FALSE,FALSE,FALSE,FALSE,FALSE,2163,FALSE,FALSE,FALSE,FALSE,FALSE
completed,79.55000305,Hermitage on Huron,Chicago,Illinois,41.89511108,-87.63091278,FALSE,TRUE,1985,FALSE,FALSE,FALSE,FALSE,FALSE,FALSE,FALSE,26,FALSE,FALSE,FALSE,FALSE,FALSE,FALSE,FALSE,FALSE,FALSE,2159,FALSE,TRUE,FALSE,FALSE,FALSE
completed,79.55000305,KMOV Gateway Tower,St. Louis,Missouri,38.6247406,-90.18797302,FALSE,TRUE,1967,FALSE,FALSE,FALSE,FALSE,FALSE,FALSE,FALSE,21,FALSE,FALSE,FALSE,FALSE,FALSE,FALSE,FALSE,TRUE,FALSE,2161,FALSE,FALSE,FALSE,FALSE,FALSE
completed,79.55000305,315 West 36th Street,New York City,New York,40.75403976,-73.99337006,FALSE,TRUE,1927,FALSE,FALSE,FALSE,FALSE,FALSE,FALSE,FALSE,16,FALSE,FALSE,FALSE,FALSE,FALSE,FALSE,FALSE,TRUE,FALSE,2162,FALSE,FALSE,FALSE,FALSE,FALSE
completed,79.55000305,625 Stanwix Tower,Pittsburgh,Pennsylvania,40.44318008,-80.00482941,FALSE,TRUE,1967,FALSE,FALSE,FALSE,FALSE,FALSE,FALSE,FALSE,24,FALSE,FALSE,FALSE,FALSE,FALSE,FALSE,FALSE,FALSE,FALSE,2160,FALSE,TRUE,FALSE,FALSE,FALSE
completed,79.58000183,Soo Line Building,Minneapolis,Minnesota,44.97789001,-93.26904297,FALSE,TRUE,1915,FALSE,FALSE,FALSE,FALSE,FALSE,FALSE,FALSE,20,FALSE,FALSE,FALSE,FALSE,FALSE,FALSE,FALSE,TRUE,FALSE,2158,FALSE,FALSE,FALSE,FALSE,FALSE
completed,79.84999847,Hotel Indigo on Orchard Street,New York City,New York,40.72172165,-73.98805237,FALSE,TRUE,2015,FALSE,FALSE,FALSE,FALSE,FALSE,FALSE,FALSE,24,FALSE,FALSE,TRUE,FALSE,FALSE,FALSE,FALSE,FALSE,FALSE,2157,FALSE,TRUE,FALSE,FALSE,FALSE
completed,79.86000061,Postum Building,New York City,New York,40.75521851,-73.97595978,FALSE,TRUE,1924,FALSE,FALSE,FALSE,FALSE,FALSE,FALSE,FALSE,21,FALSE,FALSE,FALSE,FALSE,FALSE,FALSE,FALSE,TRUE,FALSE,2155,FALSE,FALSE,FALSE,FALSE,FALSE
completed,79.86000061,386 Park Avenue South,New York City,New York,40.74303055,-73.98477173,FALSE,TRUE,1927,FALSE,FALSE,FALSE,FALSE,FALSE,FALSE,FALSE,20,FALSE,FALSE,FALSE,FALSE,FALSE,FALSE,FALSE,TRUE,FALSE,2156,FALSE,FALSE,FALSE,FALSE,FALSE
completed,80,SkyHouse Orlando,Orlando,Florida,28.54707909,-81.37708282,FALSE,TRUE,2013,FALSE,FALSE,FALSE,FALSE,FALSE,FALSE,FALSE,23,FALSE,FALSE,FALSE,FALSE,FALSE,FALSE,FALSE,FALSE,FALSE,2150,FALSE,TRUE,FALSE,FALSE,FALSE
completed,80,SkyHouse South,Atlanta,Georgia,33.77753067,-84.38321686,FALSE,TRUE,2014,FALSE,FALSE,FALSE,FALSE,FALSE,FALSE,FALSE,23,FALSE,FALSE,FALSE,FALSE,FALSE,FALSE,FALSE,FALSE,FALSE,2150,FALSE,TRUE,FALSE,FALSE,FALSE
completed,80,Pearson on the Park,Chicago,Illinois,41.89778137,-87.62056732,FALSE,TRUE,1965,FALSE,FALSE,FALSE,FALSE,FALSE,FALSE,FALSE,27,FALSE,FALSE,FALSE,FALSE,FALSE,FALSE,FALSE,FALSE,FALSE,2148,FALSE,TRUE,FALSE,FALSE,FALSE
completed,80,Century Building,Chicago,Illinois,41.87929916,-87.62809753,TRUE,TRUE,1915,FALSE,FALSE,FALSE,FALSE,FALSE,FALSE,FALSE,16,FALSE,FALSE,FALSE,FALSE,FALSE,FALSE,FALSE,FALSE,FALSE,2152,FALSE,FALSE,FALSE,FALSE,FALSE
completed,80.16000366,Grand East,New York City,New York,40.75310135,-73.97454834,FALSE,TRUE,2014,FALSE,FALSE,FALSE,FALSE,FALSE,FALSE,FALSE,27,FALSE,FALSE,TRUE,FALSE,FALSE,FALSE,FALSE,FALSE,FALSE,2146,FALSE,FALSE,FALSE,FALSE,FALSE
completed,80.16000366,Seven,Austin,Texas,30.27051926,-97.74897766,FALSE,TRUE,2015,FALSE,FALSE,FALSE,FALSE,FALSE,FALSE,FALSE,24,FALSE,FALSE,FALSE,FALSE,FALSE,FALSE,FALSE,FALSE,FALSE,2147,FALSE,TRUE,FALSE,FALSE,FALSE
completed,80.45999908,Victoria Building,New York City,New York,40.74414063,-73.98845673,FALSE,TRUE,1912,FALSE,FALSE,FALSE,FALSE,FALSE,FALSE,FALSE,20,FALSE,FALSE,FALSE,FALSE,FALSE,FALSE,FALSE,TRUE,FALSE,2145,FALSE,FALSE,FALSE,FALSE,FALSE
completed,80.47000122,SkyHouse Austin,Austin,Texas,30.25716019,-97.73905182,FALSE,TRUE,2014,FALSE,FALSE,FALSE,FALSE,FALSE,FALSE,FALSE,23,FALSE,FALSE,FALSE,FALSE,FALSE,FALSE,FALSE,FALSE,FALSE,2144,FALSE,TRUE,FALSE,FALSE,FALSE
completed,80.5,Rehabilitation Institute of Chicago,Chicago,Illinois,41.89545822,-87.61820984,FALSE,TRUE,1973,FALSE,FALSE,FALSE,FALSE,FALSE,FALSE,FALSE,19,FALSE,TRUE,FALSE,FALSE,FALSE,FALSE,FALSE,FALSE,FALSE,2141,FALSE,FALSE,FALSE,FALSE,FALSE
completed,80.5,National Naval Medical Center,Bethesda,Maryland,39.00183868,-77.09420776,FALSE,TRUE,1942,FALSE,FALSE,FALSE,FALSE,FALSE,FALSE,FALSE,19,FALSE,TRUE,FALSE,FALSE,FALSE,FALSE,FALSE,FALSE,FALSE,2141,FALSE,FALSE,FALSE,FALSE,FALSE
completed,80.5,111 Eighth Avenue,New York City,New York,40.74134827,-74.00319672,FALSE,TRUE,1932,FALSE,FALSE,FALSE,FALSE,FALSE,FALSE,FALSE,17,FALSE,FALSE,FALSE,FALSE,FALSE,FALSE,FALSE,TRUE,FALSE,2143,FALSE,FALSE,FALSE,FALSE,FALSE
completed,80.5,Lawrence Hall,Pittsburgh,Pennsylvania,40.438591,-80.00138855,FALSE,TRUE,1929,FALSE,FALSE,FALSE,FALSE,FALSE,FALSE,FALSE,20,FALSE,FALSE,FALSE,FALSE,FALSE,FALSE,FALSE,FALSE,FALSE,2140,FALSE,TRUE,FALSE,FALSE,FALSE
completed,80.51000214,701 Building,Minneapolis,Minnesota,44.97410965,-93.26663971,FALSE,TRUE,1984,FALSE,FALSE,FALSE,FALSE,FALSE,FALSE,FALSE,19,FALSE,FALSE,FALSE,FALSE,FALSE,FALSE,FALSE,TRUE,FALSE,2139,FALSE,FALSE,FALSE,FALSE,FALSE
completed,80.51999664,Thrivent Financial Building,Minneapolis,Minnesota,44.97489166,-93.26593018,FALSE,TRUE,1981,FALSE,FALSE,FALSE,FALSE,FALSE,FALSE,FALSE,17,FALSE,FALSE,FALSE,FALSE,FALSE,FALSE,FALSE,TRUE,FALSE,2138,FALSE,FALSE,FALSE,FALSE,FALSE
completed,80.66999817,100 11th Avenue,New York City,New York,40.74620056,-74.00775909,FALSE,TRUE,2010,FALSE,FALSE,FALSE,FALSE,FALSE,FALSE,FALSE,22,FALSE,FALSE,FALSE,FALSE,FALSE,FALSE,FALSE,FALSE,FALSE,2137,FALSE,TRUE,FALSE,FALSE,FALSE
completed,80.75,Kanawha Valley Building,Charleston,West Virginia,38.3506813,-81.63292694,FALSE,TRUE,1929,FALSE,FALSE,FALSE,FALSE,FALSE,FALSE,FALSE,20,FALSE,FALSE,FALSE,FALSE,FALSE,FALSE,FALSE,TRUE,FALSE,2136,FALSE,FALSE,FALSE,FALSE,FALSE
completed,80.76999664,1325 J Street,Sacramento,California,38.57923889,-121.4882507,FALSE,TRUE,1999,FALSE,FALSE,FALSE,FALSE,FALSE,FALSE,FALSE,19,FALSE,FALSE,FALSE,FALSE,FALSE,FALSE,FALSE,TRUE,FALSE,2133,FALSE,FALSE,FALSE,FALSE,FALSE
completed,80.76999664,300 Capitol Mall,Sacramento,California,38.57872009,-121.5040207,FALSE,TRUE,1984,FALSE,FALSE,FALSE,FALSE,FALSE,FALSE,FALSE,18,FALSE,FALSE,FALSE,FALSE,FALSE,FALSE,FALSE,TRUE,FALSE,2134,FALSE,FALSE,FALSE,FALSE,FALSE
completed,80.76999664,Optima Views,Evanston,Illinois,42.04951096,-87.68528748,FALSE,TRUE,2003,FALSE,FALSE,FALSE,FALSE,FALSE,FALSE,FALSE,28,FALSE,FALSE,FALSE,FALSE,FALSE,FALSE,FALSE,FALSE,FALSE,2130,FALSE,TRUE,FALSE,FALSE,FALSE
completed,80.76999664,Emerald Green,New York City,New York,40.75495911,-73.99323273,FALSE,TRUE,2009,FALSE,FALSE,FALSE,FALSE,FALSE,FALSE,FALSE,24,FALSE,FALSE,FALSE,FALSE,FALSE,FALSE,FALSE,FALSE,FALSE,2131,FALSE,TRUE,FALSE,FALSE,FALSE
completed,80.76999664,The Regent,Salt Lake City,Utah,40.76760101,-111.8901291,FALSE,TRUE,2011,FALSE,FALSE,FALSE,FALSE,FALSE,FALSE,FALSE,23,FALSE,FALSE,FALSE,FALSE,FALSE,FALSE,FALSE,TRUE,FALSE,2132,FALSE,TRUE,TRUE,FALSE,FALSE
completed,81,480 Main Street,New York City,New York,40.75938034,-73.95124054,FALSE,TRUE,2015,FALSE,FALSE,FALSE,FALSE,FALSE,FALSE,FALSE,21,FALSE,FALSE,FALSE,FALSE,FALSE,FALSE,FALSE,FALSE,FALSE,2128,FALSE,TRUE,FALSE,FALSE,FALSE
completed,81,Midtown Plaza,Charlotte,North Carolina,35.22631073,-80.84507751,FALSE,TRUE,1924,FALSE,FALSE,FALSE,FALSE,FALSE,FALSE,FALSE,17,FALSE,FALSE,FALSE,FALSE,FALSE,FALSE,FALSE,TRUE,FALSE,2129,FALSE,FALSE,FALSE,FALSE,FALSE
completed,81.37999725,Hyatt Regency Miami,Miami,Florida,25.77070045,-80.19049835,FALSE,TRUE,1982,FALSE,FALSE,FALSE,FALSE,FALSE,FALSE,FALSE,23,FALSE,FALSE,TRUE,FALSE,FALSE,FALSE,FALSE,FALSE,FALSE,2124,FALSE,FALSE,FALSE,FALSE,FALSE
completed,81.37999725,US Bank Plaza,Boise,Idaho,43.61484909,-116.2029495,FALSE,TRUE,1978,FALSE,FALSE,FALSE,FALSE,FALSE,FALSE,FALSE,20,FALSE,FALSE,FALSE,FALSE,FALSE,FALSE,FALSE,TRUE,FALSE,2126,FALSE,FALSE,FALSE,FALSE,FALSE
completed,81.37999725,Kheel Tower,New York City,New York,40.74695969,-73.99321747,FALSE,TRUE,1926,FALSE,FALSE,FALSE,FALSE,FALSE,FALSE,FALSE,21,FALSE,FALSE,FALSE,FALSE,FALSE,FALSE,FALSE,FALSE,FALSE,2125,FALSE,TRUE,FALSE,FALSE,FALSE
completed,81.37999725,New York Times Building,New York City,New York,40.75737,-73.98760223,FALSE,TRUE,1931,FALSE,FALSE,FALSE,FALSE,FALSE,FALSE,FALSE,18,FALSE,FALSE,FALSE,FALSE,FALSE,FALSE,FALSE,TRUE,FALSE,2127,FALSE,FALSE,FALSE,FALSE,FALSE
completed,81.40000153,Via6 South Tower,Seattle,Washington,47.61513138,-122.3402328,FALSE,TRUE,2013,FALSE,FALSE,FALSE,FALSE,FALSE,FALSE,FALSE,24,FALSE,FALSE,FALSE,FALSE,FALSE,FALSE,FALSE,FALSE,FALSE,2122,FALSE,TRUE,FALSE,FALSE,FALSE
completed,81.40000153,Via6 North Tower,Seattle,Washington,47.61557007,-122.3409119,FALSE,TRUE,2013,FALSE,FALSE,FALSE,FALSE,FALSE,FALSE,FALSE,24,FALSE,FALSE,FALSE,FALSE,FALSE,FALSE,FALSE,FALSE,FALSE,2122,FALSE,TRUE,FALSE,FALSE,FALSE
completed,81.69000244,303 5th Avenue,New York City,New York,40.746521,-73.98548889,FALSE,TRUE,1910,FALSE,FALSE,FALSE,FALSE,FALSE,FALSE,FALSE,20,FALSE,FALSE,FALSE,FALSE,FALSE,FALSE,FALSE,TRUE,FALSE,2120,FALSE,FALSE,FALSE,FALSE,FALSE
completed,81.69000244,AXA Tower I,Syracuse,New York,43.0451088,-76.15046692,FALSE,TRUE,1966,FALSE,FALSE,FALSE,FALSE,FALSE,FALSE,FALSE,19,FALSE,FALSE,FALSE,FALSE,FALSE,FALSE,FALSE,TRUE,FALSE,2121,FALSE,FALSE,FALSE,FALSE,FALSE
completed,81.69000244,Avalon West Chelsea,New York City,New York,40.75214005,-74.00427246,FALSE,TRUE,2014,FALSE,FALSE,FALSE,FALSE,FALSE,FALSE,FALSE,27,FALSE,FALSE,FALSE,FALSE,FALSE,FALSE,FALSE,FALSE,FALSE,2119,FALSE,TRUE,FALSE,FALSE,FALSE
completed,81.69999695,The St. James,Houston,Texas,29.74539948,-95.47148132,FALSE,TRUE,1975,FALSE,FALSE,FALSE,FALSE,FALSE,FALSE,FALSE,25,FALSE,FALSE,FALSE,FALSE,FALSE,FALSE,FALSE,FALSE,FALSE,2118,FALSE,TRUE,FALSE,FALSE,FALSE
completed,81.98999786,Texas Children's Hospital Pavilion for Women,Houston,Texas,29.70853043,-95.40248871,FALSE,TRUE,2012,FALSE,FALSE,FALSE,FALSE,FALSE,FALSE,FALSE,14,FALSE,TRUE,FALSE,FALSE,FALSE,FALSE,FALSE,FALSE,FALSE,2117,FALSE,FALSE,FALSE,FALSE,FALSE
completed,82,Henry Hudson Hotel,New York City,New York,40.76805115,-73.98500824,FALSE,TRUE,1929,FALSE,FALSE,FALSE,FALSE,FALSE,FALSE,FALSE,27,FALSE,FALSE,TRUE,FALSE,FALSE,FALSE,FALSE,FALSE,FALSE,2111,FALSE,FALSE,FALSE,FALSE,FALSE
completed,82,The Plaza Residences,New York City,New York,40.764431,-73.97450256,FALSE,TRUE,1909,FALSE,FALSE,FALSE,FALSE,FALSE,FALSE,FALSE,18,FALSE,FALSE,TRUE,FALSE,FALSE,FALSE,FALSE,FALSE,FALSE,2116,FALSE,TRUE,FALSE,FALSE,FALSE
completed,82,Lefcourt Empire Building,New York City,New York,40.75157928,-73.98681641,FALSE,TRUE,1930,FALSE,FALSE,FALSE,FALSE,FALSE,FALSE,FALSE,21,FALSE,FALSE,FALSE,FALSE,FALSE,FALSE,FALSE,TRUE,FALSE,2114,FALSE,FALSE,FALSE,FALSE,FALSE
completed,82,Lexington House,New York City,New York,40.75529099,-73.97296143,FALSE,TRUE,2010,FALSE,FALSE,FALSE,FALSE,FALSE,FALSE,FALSE,24,FALSE,FALSE,TRUE,FALSE,FALSE,FALSE,FALSE,FALSE,FALSE,2112,FALSE,FALSE,FALSE,FALSE,FALSE
completed,82,The Cumberland Apartments,Nashville,Tennessee,36.16239929,-86.78103638,FALSE,TRUE,1999,FALSE,FALSE,FALSE,FALSE,FALSE,FALSE,FALSE,23,FALSE,FALSE,FALSE,FALSE,FALSE,FALSE,FALSE,FALSE,FALSE,2113,FALSE,TRUE,FALSE,FALSE,FALSE
completed,82,Plaza 600,Seattle,Washington,47.61404037,-122.3371811,FALSE,TRUE,1969,FALSE,FALSE,FALSE,FALSE,FALSE,FALSE,FALSE,20,FALSE,FALSE,FALSE,FALSE,FALSE,FALSE,FALSE,TRUE,FALSE,2115,FALSE,FALSE,FALSE,FALSE,FALSE
completed,82.09999847,River Towers B,Minneapolis,Minnesota,44.98311996,-93.26576996,FALSE,TRUE,1966,FALSE,FALSE,FALSE,FALSE,FALSE,FALSE,FALSE,27,FALSE,FALSE,FALSE,FALSE,FALSE,FALSE,FALSE,FALSE,FALSE,2110,FALSE,TRUE,FALSE,FALSE,FALSE
completed,82.19999695,Jefferson Tower,Birmingham (AL),Alabama,33.50588989,-86.80133057,FALSE,TRUE,1940,FALSE,FALSE,FALSE,FALSE,FALSE,FALSE,FALSE,16,FALSE,TRUE,FALSE,FALSE,FALSE,FALSE,FALSE,FALSE,FALSE,2109,FALSE,FALSE,FALSE,FALSE,FALSE
completed,82.22000122,The Powhatan,Chicago,Illinois,41.80458832,-87.58444977,FALSE,TRUE,1929,FALSE,FALSE,FALSE,FALSE,FALSE,FALSE,FALSE,22,FALSE,FALSE,FALSE,FALSE,FALSE,FALSE,FALSE,FALSE,FALSE,2108,FALSE,TRUE,FALSE,FALSE,FALSE
completed,82.30000305,860 North Lake Shore Drive,Chicago,Illinois,41.89862823,-87.61875153,FALSE,TRUE,1951,FALSE,FALSE,FALSE,FALSE,FALSE,FALSE,FALSE,26,FALSE,FALSE,FALSE,FALSE,FALSE,FALSE,FALSE,FALSE,FALSE,2104,FALSE,TRUE,FALSE,FALSE,FALSE
completed,82.30000305,880 North Lake Shore Drive,Chicago,Illinois,41.89899826,-87.61889648,FALSE,TRUE,1951,FALSE,FALSE,FALSE,FALSE,FALSE,FALSE,FALSE,26,FALSE,FALSE,FALSE,FALSE,FALSE,FALSE,FALSE,FALSE,FALSE,2104,FALSE,TRUE,FALSE,FALSE,FALSE
completed,82.30000305,Michigan Boulevard Building,Chicago,Illinois,41.88290024,-87.62493896,FALSE,TRUE,1914,FALSE,FALSE,FALSE,FALSE,FALSE,FALSE,FALSE,21,FALSE,FALSE,FALSE,FALSE,FALSE,FALSE,FALSE,TRUE,FALSE,2107,FALSE,FALSE,FALSE,FALSE,FALSE
completed,82.30000305,Hollywood Towers North,Chicago,Illinois,41.98625946,-87.65437317,FALSE,TRUE,1962,FALSE,FALSE,FALSE,FALSE,FALSE,FALSE,FALSE,29,FALSE,FALSE,FALSE,FALSE,FALSE,FALSE,FALSE,FALSE,FALSE,2102,FALSE,TRUE,FALSE,FALSE,FALSE
completed,82.30000305,Hollywood Towers South,Chicago,Illinois,41.98577881,-87.65435791,FALSE,TRUE,1962,FALSE,FALSE,FALSE,FALSE,FALSE,FALSE,FALSE,29,FALSE,FALSE,FALSE,FALSE,FALSE,FALSE,FALSE,FALSE,FALSE,2102,FALSE,TRUE,FALSE,FALSE,FALSE
completed,82.30000305,Twelve | Twelve,Nashville,Tennessee,36.15356064,-86.78633881,FALSE,TRUE,2014,FALSE,FALSE,FALSE,FALSE,FALSE,FALSE,FALSE,23,FALSE,FALSE,FALSE,FALSE,FALSE,FALSE,FALSE,FALSE,FALSE,2106,FALSE,TRUE,FALSE,FALSE,FALSE
completed,82.44999695,Loews Minneapolis Hotel,Minneapolis,Minnesota,44.97893143,-93.27516937,FALSE,TRUE,2003,FALSE,FALSE,FALSE,FALSE,FALSE,FALSE,FALSE,22,FALSE,FALSE,TRUE,FALSE,FALSE,FALSE,FALSE,FALSE,FALSE,2101,FALSE,FALSE,FALSE,FALSE,FALSE
completed,82.90000153,Franklin / Illinois Apartments,Chicago,Illinois,41.89102936,-87.63490295,FALSE,TRUE,2014,FALSE,FALSE,FALSE,FALSE,FALSE,FALSE,FALSE,26,FALSE,FALSE,FALSE,FALSE,FALSE,FALSE,FALSE,FALSE,FALSE,2099,FALSE,TRUE,FALSE,FALSE,FALSE
completed,82.90000153,David Whitney Building,Detroit,Michigan,42.33557129,-83.05042267,FALSE,TRUE,1916,FALSE,FALSE,FALSE,FALSE,FALSE,FALSE,FALSE,19,FALSE,FALSE,FALSE,FALSE,FALSE,FALSE,FALSE,TRUE,FALSE,2100,FALSE,FALSE,FALSE,FALSE,FALSE
completed,82.91000366,First Interstate Center,Billings,Montana,45.78342819,-108.5121002,FALSE,TRUE,1985,FALSE,FALSE,FALSE,FALSE,FALSE,FALSE,FALSE,20,FALSE,FALSE,FALSE,FALSE,FALSE,FALSE,FALSE,TRUE,FALSE,2096,FALSE,FALSE,FALSE,FALSE,FALSE
completed,82.91000366,102 5th Avenue,New York City,New York,40.73709869,-73.9931488,FALSE,TRUE,1912,FALSE,FALSE,FALSE,FALSE,FALSE,FALSE,FALSE,19,FALSE,FALSE,FALSE,FALSE,FALSE,FALSE,FALSE,TRUE,FALSE,2097,FALSE,FALSE,FALSE,FALSE,FALSE
completed,82.91000366,Crown Plaza Cincinnati,Cincinnati,Ohio,39.1020813,-84.51394653,FALSE,TRUE,1949,FALSE,FALSE,FALSE,FALSE,FALSE,FALSE,FALSE,19,FALSE,FALSE,TRUE,FALSE,FALSE,FALSE,FALSE,FALSE,FALSE,2097,FALSE,TRUE,FALSE,FALSE,FALSE
completed,82.975704,Hartford Marriott Downtown,Hartford,Conneticut,41.76387024,-72.66932678,FALSE,TRUE,2005,FALSE,FALSE,FALSE,FALSE,FALSE,FALSE,FALSE,22,FALSE,FALSE,TRUE,FALSE,FALSE,FALSE,FALSE,FALSE,FALSE,2391,FALSE,FALSE,FALSE,FALSE,FALSE
completed,83,Macy's at State Street,Chicago,Illinois,41.88389969,-87.62711334,FALSE,TRUE,1914,FALSE,FALSE,FALSE,FALSE,FALSE,FALSE,FALSE,13,FALSE,FALSE,FALSE,FALSE,FALSE,FALSE,FALSE,FALSE,FALSE,2094,FALSE,FALSE,TRUE,FALSE,FALSE
completed,83,Park Place,Seattle,Washington,47.6090889,-122.3320084,FALSE,TRUE,1972,FALSE,FALSE,FALSE,FALSE,FALSE,FALSE,FALSE,21,FALSE,FALSE,FALSE,FALSE,FALSE,FALSE,FALSE,TRUE,FALSE,2092,FALSE,FALSE,FALSE,FALSE,FALSE
completed,83.19999695,Doubletree Guest Suites,Houston,Texas,29.73914909,-95.46893311,FALSE,TRUE,1982,FALSE,FALSE,FALSE,FALSE,FALSE,FALSE,FALSE,26,FALSE,FALSE,TRUE,FALSE,FALSE,FALSE,FALSE,FALSE,FALSE,2091,FALSE,FALSE,FALSE,FALSE,FALSE
completed,83.20999908,SouthShore Condominiums Tower 1,Newport,Kentucky,39.10044098,-84.49059296,FALSE,TRUE,2009,FALSE,FALSE,FALSE,FALSE,FALSE,FALSE,FALSE,21,FALSE,FALSE,FALSE,FALSE,FALSE,FALSE,FALSE,FALSE,FALSE,2090,FALSE,TRUE,FALSE,FALSE,FALSE
completed,83.51999664,Metro Tower,Lubbock,Texas,33.58484,-101.848768,FALSE,TRUE,1955,FALSE,FALSE,FALSE,FALSE,FALSE,FALSE,FALSE,20,FALSE,FALSE,FALSE,FALSE,FALSE,FALSE,FALSE,TRUE,FALSE,2089,FALSE,FALSE,FALSE,FALSE,FALSE
completed,83.51999664,136 E South Temple,Salt Lake City,Utah,40.76897049,-111.887001,FALSE,TRUE,1966,FALSE,FALSE,FALSE,FALSE,FALSE,FALSE,FALSE,25,FALSE,FALSE,FALSE,FALSE,FALSE,FALSE,FALSE,TRUE,FALSE,2087,FALSE,FALSE,FALSE,FALSE,FALSE
completed,83.51999664,Hilton Milwaukee City Center,Milwaukee,Wisconsin,43.03839874,-87.91797638,FALSE,TRUE,1927,FALSE,FALSE,FALSE,FALSE,FALSE,FALSE,FALSE,25,FALSE,FALSE,TRUE,FALSE,FALSE,FALSE,FALSE,FALSE,FALSE,2087,FALSE,FALSE,FALSE,FALSE,FALSE
completed,83.81999969,Fisher Building,Chicago,Illinois,41.87722015,-87.62902069,FALSE,TRUE,1906,FALSE,FALSE,FALSE,FALSE,FALSE,FALSE,FALSE,20,FALSE,FALSE,FALSE,FALSE,FALSE,FALSE,FALSE,TRUE,FALSE,2085,FALSE,FALSE,FALSE,FALSE,FALSE
completed,83.81999969,City Hall Plaza,Manchester (NH),New Hampshire,42.990536,-71.463562,FALSE,TRUE,1992,FALSE,FALSE,FALSE,FALSE,FALSE,FALSE,FALSE,20,FALSE,FALSE,FALSE,FALSE,FALSE,FALSE,FALSE,TRUE,FALSE,2085,FALSE,FALSE,FALSE,FALSE,FALSE
completed,83.81999969,SkyHouse Houston,Houston,Texas,29.75206947,-95.36837769,FALSE,TRUE,2015,FALSE,FALSE,FALSE,FALSE,FALSE,FALSE,FALSE,24,FALSE,FALSE,FALSE,FALSE,FALSE,FALSE,FALSE,FALSE,FALSE,2083,FALSE,TRUE,FALSE,FALSE,FALSE
completed,84,Mercy Medical Center Inpatient Tower,Baltimore,Maryland,39.2929306,-76.61322784,FALSE,TRUE,1963,FALSE,FALSE,FALSE,FALSE,FALSE,FALSE,FALSE,20,FALSE,TRUE,FALSE,FALSE,FALSE,FALSE,FALSE,FALSE,FALSE,2080,FALSE,FALSE,FALSE,FALSE,FALSE
completed,84,Two Gateway Center,Pittsburgh,Pennsylvania,40.44223022,-80.00460815,FALSE,TRUE,1952,FALSE,FALSE,FALSE,FALSE,FALSE,FALSE,FALSE,20,FALSE,FALSE,FALSE,FALSE,FALSE,FALSE,FALSE,TRUE,FALSE,2080,FALSE,FALSE,FALSE,FALSE,FALSE
completed,84,One Gateway Center,Pittsburgh,Pennsylvania,40.44287872,-80.00546265,FALSE,TRUE,1952,FALSE,FALSE,FALSE,FALSE,FALSE,FALSE,FALSE,20,FALSE,FALSE,FALSE,FALSE,FALSE,FALSE,FALSE,TRUE,FALSE,2080,FALSE,FALSE,FALSE,FALSE,FALSE
completed,84.09999847,River Place on the Park,Chicago,Illinois,41.89471054,-87.64349365,FALSE,TRUE,2006,FALSE,FALSE,FALSE,FALSE,FALSE,FALSE,FALSE,21,FALSE,FALSE,FALSE,FALSE,FALSE,FALSE,FALSE,FALSE,FALSE,2079,FALSE,TRUE,FALSE,FALSE,FALSE
completed,84.23000336,Sherman Plaza,Evanston,Illinois,42.04738998,-87.68248749,FALSE,TRUE,2007,FALSE,FALSE,FALSE,FALSE,FALSE,FALSE,FALSE,25,FALSE,FALSE,FALSE,FALSE,FALSE,FALSE,FALSE,FALSE,FALSE,2078,FALSE,TRUE,FALSE,FALSE,FALSE
completed,84.37000275,Chase Bank Building,Evanston,Illinois,42.04713058,-87.6806488,FALSE,TRUE,1969,FALSE,FALSE,FALSE,FALSE,FALSE,FALSE,FALSE,22,FALSE,FALSE,FALSE,FALSE,FALSE,FALSE,FALSE,TRUE,FALSE,2077,FALSE,FALSE,FALSE,FALSE,FALSE
completed,84.396072,46-10 Center Boulevard,New York City,New York,40.74744034,-73.9568634,FALSE,TRUE,2014,FALSE,FALSE,FALSE,FALSE,FALSE,FALSE,FALSE,25,FALSE,FALSE,FALSE,FALSE,FALSE,FALSE,FALSE,FALSE,FALSE,2381,FALSE,TRUE,FALSE,FALSE,FALSE
completed,84.43000031,CalSTRS Building,West Sacramento,California,38.58507156,-121.5093079,FALSE,TRUE,2009,FALSE,FALSE,FALSE,FALSE,FALSE,FALSE,FALSE,15,FALSE,FALSE,FALSE,FALSE,FALSE,FALSE,FALSE,TRUE,FALSE,2076,FALSE,FALSE,FALSE,FALSE,FALSE
completed,84.43000031,Cecil and Ida Green Center for Earth Sciences,Cambridge,Massachusetts,42.36026001,-71.08927917,FALSE,TRUE,1964,FALSE,FALSE,FALSE,FALSE,FALSE,TRUE,FALSE,21,FALSE,FALSE,FALSE,FALSE,FALSE,FALSE,FALSE,FALSE,FALSE,2074,FALSE,FALSE,FALSE,FALSE,FALSE
completed,84.43000031,Railway Exchange Building,St. Louis,Missouri,38.62854004,-90.1905365,FALSE,TRUE,1914,FALSE,FALSE,FALSE,FALSE,FALSE,FALSE,FALSE,21,FALSE,FALSE,FALSE,FALSE,FALSE,FALSE,FALSE,TRUE,FALSE,2074,FALSE,FALSE,FALSE,FALSE,FALSE
completed,84.75,Lake Park Plaza,Chicago,Illinois,41.95426178,-87.64862061,FALSE,TRUE,1969,FALSE,FALSE,FALSE,FALSE,FALSE,FALSE,FALSE,30,FALSE,FALSE,FALSE,FALSE,FALSE,FALSE,FALSE,FALSE,FALSE,2072,FALSE,TRUE,FALSE,FALSE,FALSE
completed,84.75,Master Printers Building,New York City,New York,40.75408173,-73.99902344,FALSE,TRUE,1927,FALSE,FALSE,FALSE,FALSE,FALSE,FALSE,FALSE,18,FALSE,FALSE,FALSE,FALSE,FALSE,FALSE,FALSE,TRUE,FALSE,2073,FALSE,FALSE,FALSE,FALSE,FALSE
completed,84.76000214,Barbizon/63,New York City,New York,40.76436996,-73.96620941,FALSE,TRUE,1927,FALSE,FALSE,FALSE,FALSE,FALSE,FALSE,FALSE,23,FALSE,FALSE,FALSE,FALSE,FALSE,FALSE,FALSE,FALSE,FALSE,2071,FALSE,TRUE,FALSE,FALSE,FALSE
completed,85,Ward Memorial Building,Chicago,Illinois,41.89648056,-87.61956024,FALSE,TRUE,1926,FALSE,FALSE,FALSE,FALSE,FALSE,TRUE,FALSE,20,FALSE,FALSE,FALSE,FALSE,FALSE,FALSE,FALSE,FALSE,FALSE,2069,FALSE,FALSE,FALSE,FALSE,FALSE
completed,85,Medical Center of Louisiana Charity Hospital,New Orleans,Louisiana,29.95519066,-90.07819366,FALSE,TRUE,1939,FALSE,FALSE,FALSE,FALSE,FALSE,FALSE,FALSE,20,FALSE,TRUE,FALSE,FALSE,FALSE,FALSE,FALSE,FALSE,FALSE,2069,FALSE,FALSE,FALSE,FALSE,FALSE
completed,85,The Summit at University City,Philadelphia,Pennsylvania,39.95706177,-75.19164276,FALSE,TRUE,2015,FALSE,FALSE,FALSE,FALSE,FALSE,FALSE,FALSE,24,FALSE,FALSE,FALSE,FALSE,FALSE,FALSE,FALSE,FALSE,FALSE,2068,FALSE,TRUE,FALSE,FALSE,FALSE
completed,85.04000092,Four Penn Center,Philadelphia,Pennsylvania,39.95357895,-75.16716003,FALSE,TRUE,1964,FALSE,FALSE,FALSE,FALSE,FALSE,FALSE,FALSE,22,FALSE,FALSE,FALSE,FALSE,FALSE,FALSE,FALSE,TRUE,FALSE,2066,FALSE,FALSE,FALSE,FALSE,FALSE
completed,85.04000092,Frost Tower,Dallas,Texas,32.79565811,-96.80957031,FALSE,TRUE,2015,FALSE,FALSE,FALSE,FALSE,FALSE,FALSE,FALSE,22,FALSE,FALSE,FALSE,FALSE,FALSE,FALSE,FALSE,TRUE,FALSE,2066,FALSE,FALSE,TRUE,FALSE,FALSE
completed,85.22000122,Blue Chip Casino Spa Blu Tower,Michigan City,Indiana,41.71979141,-86.89266205,FALSE,TRUE,2009,FALSE,FALSE,FALSE,FALSE,FALSE,FALSE,FALSE,23,FALSE,FALSE,TRUE,FALSE,FALSE,FALSE,FALSE,FALSE,FALSE,2065,FALSE,FALSE,FALSE,FALSE,FALSE
completed,85.33999634,Museum Park Tower I,Chicago,Illinois,41.8651886,-87.62156677,FALSE,TRUE,2002,FALSE,FALSE,FALSE,FALSE,FALSE,FALSE,FALSE,20,FALSE,FALSE,FALSE,FALSE,FALSE,FALSE,FALSE,FALSE,FALSE,2064,FALSE,TRUE,FALSE,FALSE,FALSE
completed,85.33999634,The Tree House Residence Hall at Massachusetts College of Art and Design,Boston,Massachusetts,42.3366394,-71.09693146,FALSE,TRUE,2012,FALSE,FALSE,FALSE,FALSE,FALSE,FALSE,FALSE,21,FALSE,FALSE,FALSE,FALSE,FALSE,FALSE,FALSE,FALSE,FALSE,2063,FALSE,TRUE,FALSE,FALSE,FALSE
completed,85.344,Icon in the Gulch,Nashville,Tennessee,36.15164948,-86.78366089,FALSE,TRUE,2008,FALSE,FALSE,FALSE,FALSE,FALSE,FALSE,FALSE,22,FALSE,FALSE,FALSE,FALSE,FALSE,FALSE,FALSE,FALSE,FALSE,2391,FALSE,TRUE,TRUE,FALSE,FALSE
completed,85.34999847,The Sovereign,Houston,Texas,29.75687027,-95.39951324,FALSE,TRUE,2014,FALSE,FALSE,FALSE,FALSE,FALSE,FALSE,FALSE,21,FALSE,FALSE,FALSE,FALSE,FALSE,FALSE,FALSE,FALSE,FALSE,2061,FALSE,TRUE,FALSE,FALSE,FALSE
completed,85.44000244,Omni Hotel,Nashville,Tennessee,36.15703964,-86.77562714,FALSE,TRUE,2013,FALSE,FALSE,FALSE,FALSE,FALSE,FALSE,FALSE,21,FALSE,FALSE,TRUE,FALSE,FALSE,FALSE,FALSE,FALSE,FALSE,2059,FALSE,FALSE,FALSE,FALSE,FALSE
completed,85.65000153,Lawyers Building,Pittsburgh,Pennsylvania,40.43880844,-79.99809265,FALSE,TRUE,1928,FALSE,FALSE,FALSE,FALSE,FALSE,FALSE,FALSE,25,FALSE,FALSE,FALSE,FALSE,FALSE,FALSE,FALSE,TRUE,FALSE,2058,FALSE,FALSE,FALSE,FALSE,FALSE
completed,85.83000183,500 Broadway Building,St. Louis,Missouri,38.62960815,-90.18785095,FALSE,TRUE,1970,FALSE,FALSE,FALSE,FALSE,FALSE,FALSE,FALSE,22,FALSE,FALSE,FALSE,FALSE,FALSE,FALSE,FALSE,TRUE,FALSE,2057,FALSE,FALSE,FALSE,FALSE,FALSE
completed,85.94999695,Twin Towers 1,Peoria,Illinois,40.69261169,-89.5914917,FALSE,TRUE,1984,FALSE,FALSE,FALSE,FALSE,FALSE,FALSE,FALSE,29,FALSE,FALSE,FALSE,FALSE,FALSE,FALSE,FALSE,FALSE,FALSE,2052,FALSE,TRUE,FALSE,FALSE,FALSE
completed,85.94999695,Twin Towers 2,Peoria,Illinois,40.69261932,-89.59192657,FALSE,TRUE,1984,FALSE,FALSE,FALSE,FALSE,FALSE,FALSE,FALSE,29,FALSE,FALSE,FALSE,FALSE,FALSE,FALSE,FALSE,FALSE,FALSE,2052,FALSE,TRUE,FALSE,FALSE,FALSE
completed,85.94999695,6 North Michigan,Chicago,Illinois,41.88230896,-87.62489319,FALSE,TRUE,1899,FALSE,FALSE,FALSE,FALSE,FALSE,FALSE,FALSE,22,FALSE,FALSE,FALSE,FALSE,FALSE,FALSE,FALSE,FALSE,FALSE,2054,FALSE,TRUE,FALSE,FALSE,FALSE
completed,85.94999695,80 8th Avenue,New York City,New York,40.73981094,-74.0021286,FALSE,TRUE,1930,FALSE,FALSE,FALSE,FALSE,FALSE,FALSE,FALSE,20,FALSE,FALSE,FALSE,FALSE,FALSE,FALSE,FALSE,TRUE,FALSE,2056,FALSE,FALSE,FALSE,FALSE,FALSE
completed,85.94999695,Alico Building,Waco,Texas,31.55706978,-97.13200378,FALSE,TRUE,1911,FALSE,FALSE,FALSE,FALSE,FALSE,FALSE,FALSE,21,FALSE,FALSE,FALSE,FALSE,FALSE,FALSE,FALSE,TRUE,FALSE,2055,FALSE,FALSE,FALSE,FALSE,FALSE
completed,86,Omni Dallas Hotel,Dallas,Texas,32.77563858,-96.804039,FALSE,TRUE,2011,FALSE,FALSE,FALSE,FALSE,FALSE,FALSE,FALSE,23,FALSE,FALSE,TRUE,FALSE,FALSE,FALSE,FALSE,FALSE,FALSE,2051,FALSE,FALSE,FALSE,FALSE,FALSE
completed,86.26000214,Market Square Center,Indianapolis,Indiana,39.76945877,-86.15390015,FALSE,TRUE,1975,FALSE,FALSE,FALSE,FALSE,FALSE,FALSE,FALSE,20,FALSE,FALSE,FALSE,FALSE,FALSE,FALSE,FALSE,TRUE,FALSE,2050,FALSE,FALSE,FALSE,FALSE,FALSE
completed,86.5,Edgecliff Point Condos,Cincinnati,Ohio,39.12015152,-84.4834137,FALSE,TRUE,1990,FALSE,FALSE,FALSE,FALSE,FALSE,FALSE,FALSE,24,FALSE,FALSE,FALSE,FALSE,FALSE,FALSE,FALSE,FALSE,FALSE,2049,FALSE,TRUE,FALSE,FALSE,FALSE
completed,86.55999756,One HSBC Plaza,Rochester,New York,43.154999,-77.60247,FALSE,TRUE,1970,FALSE,FALSE,FALSE,FALSE,FALSE,FALSE,FALSE,21,FALSE,FALSE,FALSE,FALSE,FALSE,FALSE,FALSE,TRUE,FALSE,2048,FALSE,FALSE,FALSE,FALSE,FALSE
completed,86.59999847,SkyHouse River Oaks,Houston,Texas,29.74551964,-95.45446777,FALSE,TRUE,2015,FALSE,FALSE,FALSE,FALSE,FALSE,FALSE,FALSE,25,FALSE,FALSE,FALSE,FALSE,FALSE,FALSE,FALSE,FALSE,FALSE,2046,FALSE,TRUE,FALSE,FALSE,FALSE
completed,86.69999695,Horizon House,Chicago,Illinois,41.98664093,-87.65431213,FALSE,TRUE,1965,FALSE,FALSE,FALSE,FALSE,FALSE,FALSE,FALSE,30,FALSE,FALSE,FALSE,FALSE,FALSE,FALSE,FALSE,FALSE,FALSE,2045,FALSE,TRUE,FALSE,FALSE,FALSE
completed,86.87000275,Hobart Building,San Francisco,California,37.78936005,-122.4016724,FALSE,TRUE,1914,FALSE,FALSE,FALSE,FALSE,FALSE,FALSE,FALSE,21,FALSE,FALSE,FALSE,FALSE,FALSE,FALSE,FALSE,TRUE,FALSE,2043,FALSE,FALSE,FALSE,FALSE,FALSE
completed,86.87000275,525 Hawthorne,Chicago,Illinois,41.9444313,-87.64224243,FALSE,TRUE,1970,FALSE,FALSE,FALSE,FALSE,FALSE,FALSE,FALSE,31,FALSE,FALSE,FALSE,FALSE,FALSE,FALSE,FALSE,FALSE,FALSE,2040,FALSE,TRUE,FALSE,FALSE,FALSE
completed,86.87000275,Flatiron Building,New York City,New York,40.74103928,-73.98970795,FALSE,TRUE,1902,FALSE,FALSE,FALSE,FALSE,FALSE,FALSE,FALSE,21,FALSE,FALSE,FALSE,FALSE,FALSE,FALSE,FALSE,TRUE,FALSE,2043,FALSE,FALSE,FALSE,FALSE,FALSE
completed,86.87000275,1001 McKinney Bldg.,Houston,Texas,29.75683022,-95.36418915,FALSE,TRUE,1949,FALSE,FALSE,FALSE,FALSE,FALSE,FALSE,FALSE,22,FALSE,FALSE,FALSE,FALSE,FALSE,FALSE,FALSE,TRUE,FALSE,2042,FALSE,FALSE,FALSE,FALSE,FALSE
completed,87,Elliott Grand Hyatt Seattle,Seattle,Washington,47.61259842,-122.3336563,FALSE,TRUE,2001,FALSE,FALSE,FALSE,FALSE,FALSE,FALSE,FALSE,30,FALSE,FALSE,TRUE,FALSE,FALSE,FALSE,FALSE,FALSE,FALSE,2039,FALSE,FALSE,FALSE,FALSE,FALSE
completed,87.09999847,Continental Life Building,St. Louis,Missouri,38.63853836,-90.23252869,FALSE,TRUE,1930,FALSE,FALSE,FALSE,FALSE,FALSE,FALSE,FALSE,22,FALSE,FALSE,FALSE,FALSE,FALSE,FALSE,FALSE,FALSE,FALSE,2038,FALSE,TRUE,FALSE,FALSE,FALSE
completed,87.16999817,Hippodrome Building,New York City,New York,40.75561142,-73.98285675,FALSE,TRUE,1952,FALSE,FALSE,FALSE,FALSE,FALSE,FALSE,FALSE,19,FALSE,FALSE,FALSE,FALSE,FALSE,FALSE,FALSE,TRUE,FALSE,2037,FALSE,FALSE,FALSE,FALSE,FALSE
completed,87.19999695,22 Skyview,Miami,Florida,25.79845047,-80.18730164,FALSE,TRUE,2013,FALSE,FALSE,FALSE,FALSE,FALSE,FALSE,FALSE,31,FALSE,FALSE,FALSE,FALSE,FALSE,FALSE,FALSE,FALSE,FALSE,2035,FALSE,TRUE,FALSE,FALSE,FALSE
completed,87.19999695,505 8th Avenue,New York City,New York,40.75313187,-73.9931488,FALSE,TRUE,1926,FALSE,FALSE,FALSE,FALSE,FALSE,FALSE,FALSE,25,FALSE,FALSE,FALSE,FALSE,FALSE,FALSE,FALSE,TRUE,FALSE,2036,FALSE,FALSE,FALSE,FALSE,FALSE
completed,87.48000336,Conrad Indianapolis & Residences,Indianapolis,Indiana,39.76752853,-86.1595993,FALSE,TRUE,2006,FALSE,FALSE,FALSE,FALSE,FALSE,FALSE,FALSE,23,FALSE,FALSE,TRUE,FALSE,FALSE,FALSE,FALSE,FALSE,FALSE,2033,FALSE,TRUE,FALSE,FALSE,FALSE
completed,87.75,Presbyterian Hospital,New York City,New York,40.84090042,-73.94133759,FALSE,TRUE,1928,FALSE,FALSE,FALSE,FALSE,FALSE,FALSE,FALSE,19,FALSE,TRUE,FALSE,FALSE,FALSE,FALSE,FALSE,FALSE,FALSE,2031,FALSE,FALSE,FALSE,FALSE,FALSE
completed,87.77999878,Sunset Media Tower,Los Angeles,California,34.09841919,-118.3256302,FALSE,TRUE,1971,FALSE,FALSE,FALSE,FALSE,FALSE,FALSE,FALSE,22,FALSE,FALSE,FALSE,FALSE,FALSE,FALSE,FALSE,TRUE,FALSE,2030,FALSE,FALSE,FALSE,FALSE,FALSE
completed,87.77999878,Worcester Plaza,Worcester,Massachusetts,42.263319,-71.803478,FALSE,TRUE,1974,FALSE,FALSE,FALSE,FALSE,FALSE,FALSE,FALSE,24,FALSE,FALSE,FALSE,FALSE,FALSE,FALSE,FALSE,TRUE,FALSE,2029,FALSE,FALSE,FALSE,FALSE,FALSE
completed,88,Four Seasons Hotel St. Louis,St. Louis,Missouri,38.63386154,-90.18475342,FALSE,TRUE,2007,FALSE,FALSE,FALSE,FALSE,FALSE,FALSE,FALSE,20,FALSE,FALSE,TRUE,FALSE,FALSE,FALSE,FALSE,FALSE,FALSE,2028,FALSE,FALSE,TRUE,FALSE,FALSE
completed,88.08999634,Metropolitan Correctional Center,Chicago,Illinois,41.87654877,-87.63049316,FALSE,TRUE,1975,FALSE,FALSE,FALSE,FALSE,FALSE,FALSE,FALSE,27,FALSE,FALSE,FALSE,FALSE,FALSE,FALSE,FALSE,FALSE,TRUE,2025,FALSE,FALSE,FALSE,FALSE,FALSE
completed,88.08999634,Chestnut Park,Springfield (MA),Massachusetts,42.10253906,-72.58583069,FALSE,TRUE,1974,FALSE,FALSE,FALSE,FALSE,FALSE,FALSE,FALSE,33,FALSE,FALSE,FALSE,FALSE,FALSE,FALSE,FALSE,FALSE,FALSE,2024,FALSE,TRUE,FALSE,FALSE,FALSE
completed,88.08999634,Nic on Fifth,Minneapolis,Minnesota,44.9789505,-93.26976776,FALSE,TRUE,2014,FALSE,FALSE,FALSE,FALSE,FALSE,FALSE,FALSE,26,FALSE,FALSE,FALSE,FALSE,FALSE,FALSE,FALSE,FALSE,FALSE,2026,FALSE,TRUE,FALSE,FALSE,FALSE
completed,88.08999634,Huntington Bank Building,Cleveland,Ohio,41.50114059,-81.68637085,FALSE,TRUE,1924,FALSE,FALSE,FALSE,FALSE,FALSE,FALSE,FALSE,21,FALSE,FALSE,FALSE,FALSE,FALSE,FALSE,FALSE,TRUE,FALSE,2027,FALSE,FALSE,FALSE,FALSE,FALSE
completed,88.09999847,Museum Pointe,Chicago,Illinois,41.86560822,-87.62094116,FALSE,TRUE,2005,FALSE,FALSE,FALSE,FALSE,FALSE,FALSE,FALSE,26,FALSE,FALSE,FALSE,FALSE,FALSE,FALSE,FALSE,FALSE,FALSE,2022,FALSE,TRUE,FALSE,FALSE,FALSE
completed,88.09999847,Emerson Tower,Baltimore,Maryland,39.28770065,-76.62065887,FALSE,TRUE,1911,FALSE,FALSE,FALSE,FALSE,FALSE,FALSE,FALSE,15,FALSE,FALSE,FALSE,FALSE,FALSE,FALSE,FALSE,TRUE,FALSE,2023,FALSE,FALSE,FALSE,FALSE,FALSE
completed,88.19999695,MDA City Apartments,Chicago,Illinois,41.88550949,-87.62586975,FALSE,TRUE,1927,FALSE,FALSE,FALSE,FALSE,FALSE,FALSE,FALSE,24,FALSE,FALSE,FALSE,FALSE,FALSE,FALSE,FALSE,TRUE,FALSE,2020,FALSE,FALSE,FALSE,FALSE,FALSE
completed,88.23000336,Astor House,Chicago,Illinois,41.90699005,-87.62789917,FALSE,TRUE,1969,FALSE,FALSE,FALSE,FALSE,FALSE,FALSE,FALSE,30,FALSE,FALSE,FALSE,FALSE,FALSE,FALSE,FALSE,FALSE,FALSE,2019,FALSE,TRUE,FALSE,FALSE,FALSE
completed,88.38999939,551 West 21st Street,New York City,New York,40.74760056,-74.00740814,FALSE,TRUE,2015,FALSE,FALSE,FALSE,FALSE,FALSE,FALSE,FALSE,19,FALSE,FALSE,FALSE,FALSE,FALSE,FALSE,FALSE,FALSE,FALSE,2018,FALSE,TRUE,FALSE,FALSE,FALSE
completed,88.40000153,Renaissance Blackstone,Chicago,Illinois,41.87329865,-87.6247406,FALSE,TRUE,1910,FALSE,FALSE,FALSE,FALSE,FALSE,FALSE,FALSE,21,FALSE,FALSE,TRUE,FALSE,FALSE,FALSE,FALSE,FALSE,FALSE,2017,FALSE,FALSE,FALSE,FALSE,FALSE
completed,88.69999695,Consumers Building,Chicago,Illinois,41.87894821,-87.6280899,FALSE,TRUE,1913,FALSE,FALSE,FALSE,FALSE,FALSE,FALSE,FALSE,22,FALSE,FALSE,FALSE,FALSE,FALSE,FALSE,FALSE,TRUE,FALSE,2016,FALSE,FALSE,FALSE,FALSE,FALSE
completed,88.69999695,Park Place Tower,New York City,New York,40.7114296,-74.00585175,FALSE,TRUE,1895,FALSE,FALSE,FALSE,FALSE,FALSE,FALSE,FALSE,23,FALSE,FALSE,FALSE,FALSE,FALSE,FALSE,FALSE,FALSE,FALSE,2015,FALSE,TRUE,FALSE,FALSE,FALSE
completed,88.69999695,Legacy at Memorial,Houston,Texas,29.76378059,-95.39193726,FALSE,TRUE,2009,FALSE,FALSE,FALSE,FALSE,FALSE,FALSE,FALSE,25,FALSE,FALSE,FALSE,FALSE,FALSE,FALSE,FALSE,FALSE,FALSE,2014,FALSE,TRUE,FALSE,FALSE,FALSE
completed,89,1418 North Lake Shore Drive,Chicago,Illinois,41.90837097,-87.62641144,FALSE,TRUE,1983,FALSE,FALSE,FALSE,FALSE,FALSE,FALSE,FALSE,29,FALSE,FALSE,FALSE,FALSE,FALSE,FALSE,FALSE,FALSE,FALSE,2007,FALSE,TRUE,FALSE,FALSE,FALSE
completed,89,Randolph-Wells Building,Chicago,Illinois,41.88412857,-87.63424683,FALSE,TRUE,1928,FALSE,FALSE,FALSE,FALSE,FALSE,FALSE,FALSE,23,FALSE,FALSE,FALSE,FALSE,FALSE,FALSE,FALSE,TRUE,FALSE,2009,FALSE,FALSE,FALSE,FALSE,FALSE
completed,89,RiverCenter II,Covington,Kentucky,39.09024811,-84.50978851,FALSE,TRUE,1998,FALSE,FALSE,FALSE,FALSE,FALSE,FALSE,FALSE,17,FALSE,FALSE,FALSE,FALSE,FALSE,FALSE,FALSE,TRUE,FALSE,2013,FALSE,FALSE,FALSE,FALSE,FALSE
completed,89,Chelsea Arts Tower,New York City,New York,40.74998856,-74.00502777,FALSE,TRUE,2007,FALSE,FALSE,FALSE,FALSE,FALSE,FALSE,FALSE,20,FALSE,FALSE,FALSE,FALSE,FALSE,FALSE,FALSE,TRUE,TRUE,2011,FALSE,FALSE,FALSE,FALSE,FALSE
completed,89,Towers of Bay Ridge East,New York City,New York,40.63814163,-74.0221405,FALSE,TRUE,1972,FALSE,FALSE,FALSE,FALSE,FALSE,FALSE,FALSE,29,FALSE,FALSE,FALSE,FALSE,FALSE,FALSE,FALSE,FALSE,FALSE,2007,FALSE,TRUE,FALSE,FALSE,FALSE
completed,89,Phillips Petroleum Building,Bartlesville,Oklahoma,36.74932098,-95.9786911,FALSE,TRUE,1964,FALSE,FALSE,FALSE,FALSE,FALSE,FALSE,FALSE,19,FALSE,FALSE,FALSE,FALSE,FALSE,FALSE,FALSE,TRUE,FALSE,2012,FALSE,FALSE,FALSE,FALSE,FALSE
completed,89.09999847,Marquee Michigan Avenue,Chicago,Illinois,41.86222839,-87.62433624,FALSE,TRUE,2008,FALSE,FALSE,FALSE,FALSE,FALSE,FALSE,FALSE,26,FALSE,FALSE,FALSE,FALSE,FALSE,FALSE,FALSE,FALSE,FALSE,2005,FALSE,TRUE,FALSE,FALSE,FALSE
completed,89.09999847,Erie on the Park,Chicago,Illinois,41.89413071,-87.64206696,FALSE,TRUE,2002,FALSE,FALSE,FALSE,FALSE,FALSE,FALSE,FALSE,24,FALSE,FALSE,FALSE,FALSE,FALSE,FALSE,FALSE,FALSE,FALSE,2006,FALSE,TRUE,FALSE,FALSE,FALSE
completed,89.30000305,Gateway Towers The Condominium,Pittsburgh,Pennsylvania,40.44263077,-80.00686646,FALSE,TRUE,1964,FALSE,FALSE,FALSE,FALSE,FALSE,FALSE,FALSE,26,FALSE,FALSE,FALSE,FALSE,FALSE,FALSE,FALSE,FALSE,FALSE,2003,FALSE,TRUE,FALSE,FALSE,FALSE
completed,89.30000305,Hilton Seattle,Seattle,Washington,47.60931015,-122.3332291,FALSE,TRUE,1970,FALSE,FALSE,FALSE,FALSE,FALSE,FALSE,FALSE,25,FALSE,FALSE,TRUE,FALSE,FALSE,FALSE,FALSE,FALSE,FALSE,2004,FALSE,FALSE,FALSE,FALSE,FALSE
completed,89.36000061,The Ascent at Roebling`s Bridge,Covington,Kentucky,39.08929062,-84.50946045,FALSE,TRUE,2007,FALSE,FALSE,FALSE,FALSE,FALSE,FALSE,FALSE,21,FALSE,FALSE,FALSE,FALSE,FALSE,FALSE,FALSE,FALSE,FALSE,2002,FALSE,TRUE,FALSE,FALSE,FALSE
completed,89.59999847,Wrigley Building North Addition,Chicago,Illinois,41.88988113,-87.62478638,FALSE,TRUE,1925,FALSE,FALSE,FALSE,FALSE,FALSE,FALSE,FALSE,18,FALSE,FALSE,FALSE,FALSE,FALSE,FALSE,FALSE,TRUE,FALSE,2001,FALSE,FALSE,FALSE,FALSE,FALSE
completed,89.61000061,Hyatt Centric,Chicago,Illinois,41.88092041,-87.63123322,FALSE,TRUE,1927,FALSE,FALSE,FALSE,FALSE,FALSE,FALSE,FALSE,22,FALSE,FALSE,FALSE,FALSE,FALSE,FALSE,FALSE,TRUE,FALSE,1999,FALSE,FALSE,FALSE,FALSE,FALSE
completed,89.61000061,Grant Park Tower,Minneapolis,Minnesota,44.97018051,-93.26818848,FALSE,TRUE,2004,FALSE,FALSE,FALSE,FALSE,FALSE,FALSE,FALSE,27,FALSE,FALSE,FALSE,FALSE,FALSE,FALSE,FALSE,FALSE,FALSE,1998,FALSE,TRUE,FALSE,FALSE,FALSE
completed,89.91999817,Noble Square Co-op,Chicago,Illinois,41.90311813,-87.66532135,FALSE,TRUE,1969,FALSE,FALSE,FALSE,FALSE,FALSE,FALSE,FALSE,28,FALSE,FALSE,FALSE,FALSE,FALSE,FALSE,FALSE,FALSE,FALSE,1996,FALSE,TRUE,FALSE,FALSE,FALSE
completed,89.91999817,Riley Towers I,Indianapolis,Indiana,39.77526855,-86.15281677,FALSE,TRUE,1963,FALSE,FALSE,FALSE,FALSE,FALSE,FALSE,FALSE,30,FALSE,FALSE,FALSE,FALSE,FALSE,FALSE,FALSE,FALSE,FALSE,1994,FALSE,TRUE,FALSE,FALSE,FALSE
completed,89.91999817,Riley Towers II,Indianapolis,Indiana,39.7759285,-86.15255737,FALSE,TRUE,1963,FALSE,FALSE,FALSE,FALSE,FALSE,FALSE,FALSE,30,FALSE,FALSE,FALSE,FALSE,FALSE,FALSE,FALSE,FALSE,FALSE,1994,FALSE,TRUE,FALSE,FALSE,FALSE
completed,89.91999817,Hess Building,New York City,New York,40.74208832,-73.98557281,FALSE,TRUE,1913,FALSE,FALSE,FALSE,FALSE,FALSE,FALSE,FALSE,21,FALSE,FALSE,FALSE,FALSE,FALSE,FALSE,FALSE,TRUE,FALSE,1997,FALSE,FALSE,FALSE,FALSE,FALSE
completed,89.91999817,Rego Park Center Tower,New York City,New York,40.7324295,-73.8631897,FALSE,TRUE,2015,FALSE,FALSE,FALSE,FALSE,FALSE,FALSE,FALSE,32,FALSE,FALSE,FALSE,FALSE,FALSE,FALSE,FALSE,FALSE,FALSE,1993,FALSE,TRUE,TRUE,FALSE,FALSE
completed,90,Mayo Building,Rochester,New York,44.02212906,-92.46669006,FALSE,TRUE,1955,FALSE,FALSE,FALSE,FALSE,FALSE,FALSE,FALSE,20,FALSE,TRUE,FALSE,FALSE,FALSE,FALSE,FALSE,FALSE,FALSE,1992,FALSE,FALSE,FALSE,FALSE,FALSE
completed,90.141552,Cyan on Peachtree,Atlanta,Georgia,33.84917831,-84.36586761,FALSE,TRUE,2015,FALSE,FALSE,FALSE,FALSE,FALSE,FALSE,FALSE,23,FALSE,FALSE,FALSE,FALSE,FALSE,FALSE,FALSE,FALSE,FALSE,2390,FALSE,TRUE,FALSE,FALSE,FALSE
completed,90.22000122,Conoco-Phillips Building,Anchorage,Alaska,61.21520996,-149.896225,FALSE,TRUE,1983,FALSE,FALSE,FALSE,FALSE,FALSE,FALSE,FALSE,22,FALSE,FALSE,FALSE,FALSE,FALSE,FALSE,FALSE,TRUE,FALSE,1988,FALSE,FALSE,FALSE,FALSE,FALSE
completed,90.22000122,Starrett-Lehigh Building,New York City,New York,40.75149918,-74.00655365,FALSE,TRUE,1931,FALSE,FALSE,FALSE,FALSE,FALSE,FALSE,FALSE,19,FALSE,FALSE,FALSE,FALSE,FALSE,FALSE,FALSE,TRUE,FALSE,1989,FALSE,FALSE,FALSE,FALSE,FALSE
completed,90.25,717 Olympic,Los Angeles,California,34.04507828,-118.2634201,FALSE,TRUE,2008,FALSE,FALSE,FALSE,FALSE,FALSE,FALSE,FALSE,26,FALSE,FALSE,FALSE,FALSE,FALSE,FALSE,FALSE,FALSE,FALSE,1987,FALSE,TRUE,TRUE,FALSE,FALSE
completed,90.461592,Cityscape Tower 2,Phoenix,Arizona,33.44744873,-112.0733566,FALSE,TRUE,2014,FALSE,FALSE,FALSE,FALSE,FALSE,FALSE,FALSE,26,FALSE,FALSE,TRUE,FALSE,FALSE,FALSE,FALSE,FALSE,FALSE,2377,FALSE,TRUE,FALSE,FALSE,FALSE
completed,90.5,Sunset Vine Tower,Los Angeles,California,34.09766006,-118.3264236,FALSE,TRUE,2007,FALSE,FALSE,FALSE,FALSE,FALSE,FALSE,FALSE,20,FALSE,FALSE,FALSE,FALSE,FALSE,FALSE,FALSE,FALSE,FALSE,1985,FALSE,TRUE,FALSE,FALSE,FALSE
completed,90.5,Boji Tower,Lansing,Michigan,42.73276901,-84.55357361,FALSE,TRUE,1931,FALSE,FALSE,FALSE,FALSE,FALSE,FALSE,FALSE,23,FALSE,FALSE,FALSE,FALSE,FALSE,FALSE,FALSE,TRUE,FALSE,1983,FALSE,FALSE,FALSE,FALSE,FALSE
completed,90.5,575 8th Avenue,New York City,New York,40.75498962,-73.99182892,FALSE,TRUE,1926,FALSE,FALSE,FALSE,FALSE,TRUE,FALSE,FALSE,23,FALSE,FALSE,FALSE,FALSE,FALSE,FALSE,FALSE,FALSE,FALSE,1983,FALSE,FALSE,FALSE,FALSE,FALSE
completed,90.5,The Olivian,Seattle,Washington,47.61412048,-122.3332825,FALSE,TRUE,2009,FALSE,FALSE,FALSE,FALSE,FALSE,FALSE,FALSE,27,FALSE,FALSE,FALSE,FALSE,FALSE,FALSE,FALSE,FALSE,FALSE,1982,FALSE,TRUE,FALSE,FALSE,FALSE
completed,90.51999664,Beacon Tower,New York City,New York,40.70174026,-73.98822784,FALSE,TRUE,2007,FALSE,FALSE,FALSE,FALSE,FALSE,FALSE,FALSE,23,FALSE,FALSE,FALSE,FALSE,FALSE,FALSE,FALSE,FALSE,FALSE,1981,FALSE,TRUE,FALSE,FALSE,FALSE
completed,90.52999878,Feinberg Pavillion,Chicago,Illinois,41.89455032,-87.62094116,FALSE,TRUE,1997,FALSE,FALSE,FALSE,FALSE,FALSE,FALSE,FALSE,17,FALSE,TRUE,FALSE,FALSE,FALSE,FALSE,FALSE,FALSE,FALSE,1980,FALSE,FALSE,TRUE,FALSE,FALSE
completed,90.52999878,One Northside Piers,New York City,New York,40.71921158,-73.96385193,FALSE,TRUE,2008,FALSE,FALSE,FALSE,FALSE,FALSE,FALSE,FALSE,29,FALSE,FALSE,FALSE,FALSE,FALSE,FALSE,FALSE,FALSE,FALSE,1978,FALSE,TRUE,FALSE,FALSE,FALSE
completed,90.68000031,River North Marriott Suites,Chicago,Illinois,41.88954926,-87.62989807,FALSE,TRUE,2008,FALSE,FALSE,FALSE,FALSE,FALSE,FALSE,FALSE,27,FALSE,FALSE,TRUE,FALSE,FALSE,FALSE,FALSE,FALSE,FALSE,1977,FALSE,FALSE,FALSE,FALSE,FALSE
completed,90.69999695,Plummer Building,Rochester,New York,44.02193069,-92.46560669,FALSE,TRUE,1928,FALSE,FALSE,FALSE,FALSE,FALSE,FALSE,FALSE,19,FALSE,TRUE,FALSE,FALSE,TRUE,FALSE,FALSE,FALSE,FALSE,1976,FALSE,FALSE,FALSE,FALSE,FALSE
completed,90.83000183,Central Tower,San Francisco,California,37.78720856,-122.4036407,FALSE,TRUE,1938,FALSE,FALSE,FALSE,FALSE,FALSE,FALSE,FALSE,21,FALSE,FALSE,FALSE,FALSE,FALSE,FALSE,FALSE,TRUE,FALSE,1974,FALSE,FALSE,FALSE,FALSE,FALSE
completed,90.83000183,W Hotel Chicago Lakeshore,Chicago,Illinois,41.89382172,-87.61544037,FALSE,TRUE,1964,FALSE,FALSE,FALSE,FALSE,FALSE,FALSE,FALSE,33,FALSE,FALSE,TRUE,FALSE,FALSE,FALSE,FALSE,FALSE,FALSE,1971,FALSE,FALSE,FALSE,FALSE,FALSE
completed,90.83000183,The Gateway,New Brunswick,New Jersey,40.497403,-74.447781,FALSE,TRUE,2012,FALSE,FALSE,FALSE,FALSE,TRUE,FALSE,FALSE,22,FALSE,FALSE,FALSE,FALSE,FALSE,FALSE,FALSE,TRUE,FALSE,1973,FALSE,TRUE,FALSE,FALSE,FALSE
completed,90.83000183,The Edge South Tower,New York City,New York,40.72013855,-73.96337128,FALSE,TRUE,2009,FALSE,FALSE,FALSE,FALSE,FALSE,FALSE,FALSE,30,FALSE,FALSE,FALSE,FALSE,FALSE,FALSE,FALSE,FALSE,FALSE,1972,FALSE,TRUE,FALSE,FALSE,FALSE
completed,90.83000183,5444 Westheimer Road,Houston,Texas,29.73891068,-95.47364807,FALSE,TRUE,1979,FALSE,FALSE,FALSE,FALSE,FALSE,FALSE,FALSE,20,FALSE,FALSE,FALSE,FALSE,FALSE,FALSE,FALSE,TRUE,FALSE,1975,FALSE,FALSE,FALSE,FALSE,FALSE
completed,91,Georgia Power Company Headquarters,Atlanta,Georgia,33.76337814,-84.38121033,FALSE,TRUE,1981,FALSE,FALSE,FALSE,FALSE,FALSE,FALSE,FALSE,24,FALSE,FALSE,FALSE,FALSE,FALSE,FALSE,FALSE,TRUE,FALSE,1969,FALSE,FALSE,FALSE,FALSE,FALSE
completed,91.09999847,Astor Tower,Chicago,Illinois,41.90596008,-87.62763977,FALSE,TRUE,1962,FALSE,FALSE,FALSE,FALSE,FALSE,FALSE,FALSE,25,FALSE,FALSE,FALSE,FALSE,FALSE,FALSE,FALSE,FALSE,FALSE,1967,FALSE,TRUE,FALSE,FALSE,FALSE
completed,91.09999847,200 Chambers Street,New York City,New York,40.71667099,-74.01251984,FALSE,TRUE,2007,FALSE,FALSE,FALSE,FALSE,FALSE,FALSE,FALSE,29,FALSE,FALSE,FALSE,FALSE,FALSE,FALSE,FALSE,FALSE,FALSE,1965,FALSE,TRUE,FALSE,FALSE,FALSE
completed,91.09999847,Viceroy New York,New York City,New York,40.76457977,-73.97844696,FALSE,TRUE,2013,FALSE,FALSE,FALSE,FALSE,FALSE,FALSE,FALSE,29,FALSE,FALSE,TRUE,FALSE,FALSE,FALSE,FALSE,FALSE,FALSE,1965,FALSE,FALSE,FALSE,FALSE,FALSE
completed,91.09999847,Silver Tower I,New York City,New York,40.72692108,-73.99797058,FALSE,TRUE,1966,FALSE,FALSE,FALSE,FALSE,FALSE,FALSE,FALSE,31,FALSE,FALSE,FALSE,FALSE,FALSE,FALSE,FALSE,FALSE,FALSE,1963,FALSE,TRUE,FALSE,FALSE,FALSE
completed,91.09999847,Silver Tower II,New York City,New York,40.72671127,-73.99858856,FALSE,TRUE,1966,FALSE,FALSE,FALSE,FALSE,FALSE,FALSE,FALSE,31,FALSE,FALSE,FALSE,FALSE,FALSE,FALSE,FALSE,FALSE,FALSE,1963,FALSE,TRUE,FALSE,FALSE,FALSE
completed,91.13999939,East Coast Tower I,New York City,New York,40.74588013,-73.9580307,FALSE,TRUE,2006,FALSE,FALSE,FALSE,FALSE,FALSE,FALSE,FALSE,31,FALSE,FALSE,FALSE,FALSE,FALSE,FALSE,FALSE,FALSE,FALSE,1960,FALSE,TRUE,FALSE,FALSE,FALSE
completed,91.19999695,Pacific Building,Seattle,Washington,47.60417175,-122.3322067,FALSE,TRUE,1971,FALSE,FALSE,FALSE,FALSE,FALSE,FALSE,FALSE,23,FALSE,FALSE,FALSE,FALSE,FALSE,FALSE,FALSE,TRUE,FALSE,1959,FALSE,FALSE,FALSE,FALSE,FALSE
completed,91.40000153,One Light,Kansas City,Kansas,39.09885025,-94.58239746,FALSE,TRUE,2015,FALSE,FALSE,FALSE,FALSE,FALSE,FALSE,FALSE,25,FALSE,FALSE,FALSE,FALSE,FALSE,FALSE,FALSE,FALSE,FALSE,1956,FALSE,TRUE,FALSE,FALSE,FALSE
completed,91.40000153,Commonwealth Building,Pittsburgh,Pennsylvania,40.43906021,-80.00080109,FALSE,TRUE,1906,FALSE,FALSE,FALSE,FALSE,FALSE,FALSE,FALSE,21,FALSE,FALSE,FALSE,FALSE,FALSE,FALSE,FALSE,TRUE,FALSE,1958,FALSE,FALSE,FALSE,FALSE,FALSE
completed,91.40000153,The Carlyle,Pittsburgh,Pennsylvania,40.43917847,-80.00110626,FALSE,TRUE,1906,FALSE,FALSE,FALSE,FALSE,FALSE,FALSE,FALSE,22,FALSE,FALSE,FALSE,FALSE,FALSE,FALSE,FALSE,FALSE,FALSE,1957,FALSE,TRUE,FALSE,FALSE,FALSE
completed,91.44000244,360 State Street,New Haven,Conneticut,41.30543137,-72.92324066,FALSE,TRUE,2010,FALSE,FALSE,FALSE,FALSE,FALSE,FALSE,FALSE,31,FALSE,FALSE,FALSE,FALSE,FALSE,FALSE,FALSE,FALSE,FALSE,1953,FALSE,TRUE,FALSE,FALSE,FALSE
completed,91.44000244,The Campanile,Springfield (MA),Massachusetts,42.101184,-72.589328,FALSE,TRUE,1913,FALSE,TRUE,FALSE,FALSE,FALSE,FALSE,FALSE,0,FALSE,FALSE,FALSE,FALSE,FALSE,FALSE,FALSE,FALSE,FALSE,1955,FALSE,FALSE,FALSE,FALSE,FALSE
completed,91.44000244,55 Public Square,Cleveland,Ohio,41.50008011,-81.69573975,FALSE,TRUE,1958,FALSE,FALSE,FALSE,FALSE,FALSE,FALSE,FALSE,22,FALSE,FALSE,FALSE,FALSE,FALSE,FALSE,FALSE,TRUE,FALSE,1954,FALSE,FALSE,FALSE,FALSE,FALSE
completed,91.75,1111 North Dearborn,Chicago,Illinois,41.90205002,-87.6295929,FALSE,TRUE,1981,FALSE,FALSE,FALSE,FALSE,FALSE,FALSE,FALSE,32,FALSE,FALSE,FALSE,FALSE,FALSE,FALSE,FALSE,FALSE,FALSE,1947,FALSE,TRUE,FALSE,FALSE,FALSE
completed,91.75,Oliver Street Tower,Boston,Massachusetts,42.35528946,-71.0530777,FALSE,TRUE,1991,FALSE,FALSE,FALSE,FALSE,FALSE,FALSE,FALSE,21,FALSE,FALSE,FALSE,FALSE,FALSE,FALSE,FALSE,TRUE,FALSE,1949,FALSE,FALSE,FALSE,FALSE,FALSE
completed,91.75,Clark Building,Pittsburgh,Pennsylvania,40.44274902,-79.99951172,FALSE,TRUE,1928,FALSE,FALSE,FALSE,FALSE,FALSE,FALSE,FALSE,26,FALSE,FALSE,FALSE,FALSE,FALSE,FALSE,FALSE,FALSE,FALSE,1948,FALSE,TRUE,FALSE,FALSE,FALSE
completed,91.91999817,Hotel Ivy + Residences,Minneapolis,Minnesota,44.97148895,-93.27259064,FALSE,TRUE,2008,FALSE,FALSE,FALSE,FALSE,FALSE,FALSE,FALSE,25,FALSE,FALSE,TRUE,FALSE,FALSE,FALSE,FALSE,FALSE,FALSE,1946,FALSE,TRUE,FALSE,FALSE,FALSE
completed,92,International Tower,Los Angeles,California,34.04653931,-118.2620697,FALSE,TRUE,1985,FALSE,FALSE,FALSE,FALSE,FALSE,FALSE,FALSE,23,FALSE,FALSE,FALSE,FALSE,FALSE,FALSE,FALSE,TRUE,FALSE,1944,FALSE,FALSE,FALSE,FALSE,FALSE
completed,92,Kukui Plaza Diamond Head Tower,Honolulu,Hawaii,21.3120594,-157.858429,FALSE,TRUE,1976,FALSE,FALSE,FALSE,FALSE,FALSE,FALSE,FALSE,33,FALSE,FALSE,FALSE,FALSE,FALSE,FALSE,FALSE,FALSE,FALSE,1942,FALSE,TRUE,FALSE,FALSE,FALSE
completed,92,Kukui Plaza Diamond Ewa Tower,Honolulu,Hawaii,21.31226921,-157.8594208,FALSE,TRUE,1976,FALSE,FALSE,FALSE,FALSE,FALSE,FALSE,FALSE,33,FALSE,FALSE,FALSE,FALSE,FALSE,FALSE,FALSE,FALSE,FALSE,1942,FALSE,TRUE,FALSE,FALSE,FALSE
completed,92,Michigan Avenue Lofts,Chicago,Illinois,41.87033081,-87.62477112,FALSE,TRUE,1911,FALSE,FALSE,FALSE,FALSE,FALSE,FALSE,FALSE,20,FALSE,FALSE,FALSE,FALSE,FALSE,FALSE,FALSE,FALSE,FALSE,1945,FALSE,TRUE,FALSE,FALSE,FALSE
completed,92.05000305,Boca Raton Club Tower,Boca Raton,Florida,26.34148979,-80.07753754,FALSE,TRUE,1969,FALSE,FALSE,FALSE,FALSE,FALSE,FALSE,FALSE,27,FALSE,FALSE,TRUE,FALSE,FALSE,FALSE,FALSE,FALSE,FALSE,1938,FALSE,FALSE,FALSE,FALSE,FALSE
completed,92.05000305,Riverside Plaza,Chicago,Illinois,41.88246155,-87.63941956,FALSE,TRUE,1929,FALSE,FALSE,FALSE,FALSE,FALSE,FALSE,FALSE,26,FALSE,FALSE,FALSE,FALSE,FALSE,FALSE,FALSE,TRUE,FALSE,1939,FALSE,FALSE,FALSE,FALSE,FALSE
completed,92.05000305,Hilton Indianapolis,Indianapolis,Indiana,39.76903915,-86.16059113,FALSE,TRUE,1971,FALSE,FALSE,FALSE,FALSE,FALSE,FALSE,FALSE,18,FALSE,FALSE,TRUE,FALSE,FALSE,FALSE,FALSE,FALSE,FALSE,1941,FALSE,FALSE,FALSE,FALSE,FALSE
completed,92.05000305,The Riverhouse,New York City,New York,40.71554184,-74.01624298,FALSE,TRUE,2008,FALSE,FALSE,FALSE,FALSE,FALSE,FALSE,FALSE,31,FALSE,FALSE,FALSE,FALSE,FALSE,FALSE,FALSE,FALSE,FALSE,1937,FALSE,TRUE,FALSE,FALSE,FALSE
completed,92.34999847,The National,Chicago,Illinois,41.87976837,-87.63059998,FALSE,TRUE,1907,FALSE,FALSE,FALSE,FALSE,FALSE,FALSE,FALSE,20,FALSE,FALSE,FALSE,FALSE,FALSE,FALSE,FALSE,TRUE,FALSE,1936,FALSE,FALSE,FALSE,FALSE,FALSE
completed,92.66000366,Bank of America Center,Norfolk,Virginia,36.84540176,-76.28961945,FALSE,TRUE,1967,FALSE,FALSE,FALSE,FALSE,FALSE,FALSE,FALSE,23,FALSE,FALSE,FALSE,FALSE,FALSE,FALSE,FALSE,TRUE,FALSE,1935,FALSE,FALSE,FALSE,FALSE,FALSE
completed,92.942664,Marina Palms North Tower,North Miami Beach,Florida,25.93585968,-80.14881134,FALSE,TRUE,2015,FALSE,FALSE,FALSE,FALSE,FALSE,FALSE,FALSE,25,FALSE,FALSE,FALSE,FALSE,FALSE,FALSE,FALSE,FALSE,FALSE,2381,FALSE,TRUE,FALSE,FALSE,FALSE
completed,92.94999695,Omni William Penn Hotel,Pittsburgh,Pennsylvania,40.44063187,-79.996521,FALSE,TRUE,1916,FALSE,FALSE,FALSE,FALSE,FALSE,FALSE,FALSE,26,FALSE,FALSE,TRUE,FALSE,FALSE,FALSE,FALSE,FALSE,FALSE,1933,FALSE,FALSE,FALSE,FALSE,FALSE
completed,93,Circus Circus Skyrise Tower,Las Vegas,Nevada,36.13851929,-115.1648026,FALSE,TRUE,1986,FALSE,FALSE,FALSE,FALSE,FALSE,FALSE,FALSE,29,FALSE,FALSE,TRUE,FALSE,FALSE,FALSE,FALSE,FALSE,FALSE,1926,FALSE,FALSE,FALSE,FALSE,FALSE
completed,93,Statue of Liberty,New York City,New York,40.68920135,-74.04463959,FALSE,TRUE,1886,FALSE,FALSE,FALSE,FALSE,FALSE,FALSE,FALSE,0,FALSE,FALSE,FALSE,FALSE,FALSE,FALSE,TRUE,FALSE,FALSE,1930,FALSE,FALSE,FALSE,FALSE,FALSE
completed,93,Towers of Bay Ridge West,New York City,New York,40.63940048,-74.02419281,FALSE,TRUE,1972,FALSE,FALSE,FALSE,FALSE,FALSE,FALSE,FALSE,31,FALSE,FALSE,FALSE,FALSE,FALSE,FALSE,FALSE,FALSE,FALSE,1924,FALSE,TRUE,FALSE,FALSE,FALSE
completed,93,Gonda Building,Rochester,New York,44.02296066,-92.46682739,FALSE,TRUE,2001,FALSE,FALSE,FALSE,FALSE,FALSE,FALSE,FALSE,21,FALSE,TRUE,FALSE,FALSE,FALSE,FALSE,FALSE,FALSE,FALSE,1928,FALSE,FALSE,FALSE,FALSE,FALSE
completed,93,Four Gateway Center,Pittsburgh,Pennsylvania,40.44081879,-80.00463104,FALSE,TRUE,1960,FALSE,FALSE,FALSE,FALSE,FALSE,FALSE,FALSE,22,FALSE,FALSE,FALSE,FALSE,FALSE,FALSE,FALSE,TRUE,FALSE,1927,FALSE,FALSE,FALSE,FALSE,FALSE
completed,93,Midtown Towers,Pittsburgh,Pennsylvania,40.44258881,-80.00013733,FALSE,TRUE,1907,FALSE,FALSE,FALSE,FALSE,FALSE,FALSE,FALSE,18,FALSE,FALSE,FALSE,FALSE,FALSE,FALSE,FALSE,FALSE,FALSE,1929,FALSE,TRUE,FALSE,FALSE,FALSE
completed,93,Metropolitan Tower,Seattle,Washington,47.61470032,-122.3373108,FALSE,TRUE,2001,FALSE,FALSE,FALSE,FALSE,FALSE,FALSE,FALSE,31,FALSE,FALSE,FALSE,FALSE,FALSE,FALSE,FALSE,FALSE,FALSE,1924,FALSE,TRUE,FALSE,FALSE,FALSE
completed,93.19999695,SoNo West Tower,Chicago,Illinois,41.90876007,-87.65088654,FALSE,TRUE,2009,FALSE,FALSE,FALSE,FALSE,FALSE,FALSE,FALSE,27,FALSE,FALSE,FALSE,FALSE,FALSE,FALSE,FALSE,FALSE,FALSE,1923,FALSE,TRUE,FALSE,FALSE,FALSE
completed,93.26999664,Atlantic Terminal Houses 1,New York City,New York,40.6830101,-73.97015381,FALSE,TRUE,1976,FALSE,FALSE,FALSE,FALSE,FALSE,FALSE,FALSE,31,FALSE,FALSE,FALSE,FALSE,FALSE,FALSE,FALSE,FALSE,FALSE,1922,FALSE,TRUE,FALSE,FALSE,FALSE
completed,93.56999969,Lever House,New York City,New York,40.75949097,-73.97289276,FALSE,TRUE,1952,FALSE,FALSE,FALSE,FALSE,FALSE,FALSE,FALSE,21,FALSE,FALSE,FALSE,FALSE,FALSE,FALSE,FALSE,TRUE,FALSE,1921,FALSE,FALSE,FALSE,FALSE,FALSE
completed,93.56999969,Wilco Building,Midland,Texas,31.99714088,-102.0790405,FALSE,TRUE,1958,FALSE,FALSE,FALSE,FALSE,FALSE,FALSE,FALSE,22,FALSE,FALSE,FALSE,FALSE,FALSE,FALSE,FALSE,TRUE,FALSE,1920,FALSE,FALSE,FALSE,FALSE,FALSE
completed,93.59999847,University of Texas Tower,Austin,Texas,30.28623009,-97.73937225,FALSE,TRUE,1937,FALSE,FALSE,FALSE,FALSE,FALSE,FALSE,FALSE,29,FALSE,FALSE,FALSE,FALSE,FALSE,FALSE,FALSE,TRUE,FALSE,1919,FALSE,FALSE,FALSE,FALSE,FALSE
completed,93.87999725,New York Cotton Exchange Building,New York City,New York,40.70495987,-74.00962067,FALSE,TRUE,1924,FALSE,FALSE,FALSE,FALSE,FALSE,FALSE,FALSE,23,FALSE,FALSE,FALSE,FALSE,FALSE,FALSE,FALSE,FALSE,FALSE,1917,FALSE,TRUE,FALSE,FALSE,FALSE
completed,93.87999725,McDonald Investment Center,Cleveland,Ohio,41.50173187,-81.6887207,FALSE,TRUE,1968,FALSE,FALSE,FALSE,FALSE,FALSE,FALSE,FALSE,23,FALSE,FALSE,FALSE,FALSE,FALSE,FALSE,FALSE,TRUE,FALSE,1917,FALSE,FALSE,FALSE,FALSE,FALSE
completed,93.90000153,James R. Thompson Center,Chicago,Illinois,41.88523102,-87.63170624,FALSE,TRUE,1985,FALSE,FALSE,FALSE,FALSE,FALSE,FALSE,FALSE,17,FALSE,FALSE,FALSE,FALSE,FALSE,FALSE,FALSE,TRUE,FALSE,1916,FALSE,FALSE,FALSE,FALSE,FALSE
completed,93.90000153,Purves I,New York City,New York,40.74631119,-73.94043732,FALSE,TRUE,2015,FALSE,FALSE,FALSE,FALSE,FALSE,FALSE,FALSE,28,FALSE,FALSE,FALSE,FALSE,FALSE,FALSE,FALSE,FALSE,FALSE,1915,FALSE,TRUE,FALSE,FALSE,FALSE
completed,94,EnV,Chicago,Illinois,41.88880157,-87.63372803,FALSE,TRUE,2010,FALSE,FALSE,FALSE,FALSE,FALSE,FALSE,FALSE,28,FALSE,FALSE,FALSE,FALSE,FALSE,FALSE,FALSE,FALSE,FALSE,1912,FALSE,TRUE,FALSE,FALSE,FALSE
completed,94,RiverCenter I,Covington,Kentucky,39.09016037,-84.51036072,FALSE,TRUE,1990,FALSE,FALSE,FALSE,FALSE,FALSE,FALSE,FALSE,19,FALSE,FALSE,FALSE,FALSE,FALSE,FALSE,FALSE,TRUE,FALSE,1914,FALSE,FALSE,FALSE,FALSE,FALSE
completed,94,Plymouth Towers Apartments,New York City,New York,40.78113937,-73.94656372,FALSE,TRUE,1977,FALSE,FALSE,FALSE,FALSE,FALSE,FALSE,FALSE,30,FALSE,FALSE,FALSE,FALSE,FALSE,FALSE,FALSE,FALSE,FALSE,1911,FALSE,TRUE,FALSE,FALSE,FALSE
completed,94,201 Pearl Street,New York City,New York,40.70703125,-74.00669098,FALSE,TRUE,2009,FALSE,FALSE,FALSE,FALSE,FALSE,FALSE,FALSE,28,FALSE,FALSE,FALSE,FALSE,FALSE,FALSE,FALSE,FALSE,FALSE,1912,FALSE,TRUE,FALSE,FALSE,FALSE
completed,94.06128,Museum Tower at Centennial Hill,Atlanta,Georgia,33.7625885,-84.39176178,FALSE,TRUE,2002,FALSE,FALSE,FALSE,FALSE,FALSE,FALSE,FALSE,24,FALSE,FALSE,FALSE,FALSE,FALSE,FALSE,FALSE,FALSE,FALSE,2386,FALSE,TRUE,FALSE,FALSE,FALSE
completed,94.18000031,1440 Broadway,New York City,New York,40.75442123,-73.98657227,FALSE,TRUE,1925,FALSE,FALSE,FALSE,FALSE,FALSE,FALSE,FALSE,25,FALSE,FALSE,FALSE,FALSE,FALSE,FALSE,FALSE,TRUE,FALSE,1907,FALSE,FALSE,FALSE,FALSE,FALSE
completed,94.18000031,First Federal Plaza,Rochester,New York,43.156452,-77.611546,FALSE,TRUE,1976,FALSE,FALSE,FALSE,FALSE,FALSE,FALSE,FALSE,21,FALSE,FALSE,FALSE,FALSE,FALSE,FALSE,FALSE,TRUE,FALSE,1909,FALSE,FALSE,FALSE,FALSE,FALSE
completed,94.18000031,Society Hill Towers I,Philadelphia,Pennsylvania,39.94583893,-75.14463806,FALSE,TRUE,1964,FALSE,FALSE,FALSE,FALSE,FALSE,FALSE,FALSE,31,FALSE,FALSE,FALSE,FALSE,FALSE,FALSE,FALSE,FALSE,FALSE,1904,FALSE,TRUE,FALSE,FALSE,FALSE
completed,94.18000031,Society Hill Towers II,Philadelphia,Pennsylvania,39.94551086,-75.1450882,FALSE,TRUE,1964,FALSE,FALSE,FALSE,FALSE,FALSE,FALSE,FALSE,31,FALSE,FALSE,FALSE,FALSE,FALSE,FALSE,FALSE,FALSE,FALSE,1904,FALSE,TRUE,FALSE,FALSE,FALSE
completed,94.18000031,Society Hill Towers III,Philadelphia,Pennsylvania,39.94504929,-75.14450073,FALSE,TRUE,1964,FALSE,FALSE,FALSE,FALSE,FALSE,FALSE,FALSE,31,FALSE,FALSE,FALSE,FALSE,FALSE,FALSE,FALSE,FALSE,FALSE,1904,FALSE,TRUE,FALSE,FALSE,FALSE
completed,94.18000031,ICON,Philadelphia,Pennsylvania,39.94963837,-75.16848755,FALSE,TRUE,1929,FALSE,FALSE,FALSE,FALSE,FALSE,FALSE,FALSE,24,FALSE,FALSE,FALSE,FALSE,FALSE,FALSE,FALSE,FALSE,FALSE,1908,FALSE,TRUE,FALSE,FALSE,FALSE
completed,94.27999878,Omni Hotel CNN Center Expansion,Atlanta,Georgia,33.75896072,-84.39489746,FALSE,TRUE,2003,FALSE,FALSE,FALSE,FALSE,FALSE,FALSE,FALSE,28,FALSE,FALSE,TRUE,FALSE,FALSE,FALSE,FALSE,FALSE,FALSE,1903,FALSE,FALSE,FALSE,FALSE,FALSE
completed,94.30000305,3601 Market Street,Philadelphia,Pennsylvania,39.95671844,-75.19461823,FALSE,TRUE,2015,FALSE,FALSE,FALSE,FALSE,FALSE,FALSE,FALSE,28,FALSE,FALSE,FALSE,FALSE,FALSE,FALSE,FALSE,FALSE,FALSE,1902,FALSE,TRUE,FALSE,FALSE,FALSE
completed,94.48999786,Tribune Tower,Oakland,California,37.80311966,-122.2708588,FALSE,TRUE,1923,FALSE,FALSE,FALSE,FALSE,FALSE,FALSE,FALSE,20,FALSE,FALSE,FALSE,FALSE,FALSE,FALSE,FALSE,TRUE,FALSE,1901,FALSE,FALSE,FALSE,FALSE,FALSE
completed,94.48999786,1 Empire State Plaza,Albany,New York,42.65171814,-73.75962067,FALSE,TRUE,1973,FALSE,FALSE,FALSE,FALSE,FALSE,FALSE,FALSE,23,TRUE,FALSE,FALSE,FALSE,FALSE,FALSE,FALSE,FALSE,FALSE,1897,FALSE,FALSE,FALSE,FALSE,FALSE
completed,94.48999786,2 Empire State Plaza,Albany,New York,42.65105057,-73.76026917,FALSE,TRUE,1973,FALSE,FALSE,FALSE,FALSE,FALSE,FALSE,FALSE,23,TRUE,FALSE,FALSE,FALSE,FALSE,FALSE,FALSE,FALSE,FALSE,1897,FALSE,FALSE,FALSE,FALSE,FALSE
completed,94.48999786,3 Empire State Plaza,Albany,New York,42.65039063,-73.76097107,FALSE,TRUE,1973,FALSE,FALSE,FALSE,FALSE,FALSE,FALSE,FALSE,23,TRUE,FALSE,FALSE,FALSE,FALSE,FALSE,FALSE,FALSE,FALSE,1897,FALSE,FALSE,FALSE,FALSE,FALSE
completed,94.48999786,4 Empire State Plaza,Albany,New York,42.64974976,-73.76161957,FALSE,TRUE,1974,FALSE,FALSE,FALSE,FALSE,FALSE,FALSE,FALSE,23,TRUE,FALSE,FALSE,FALSE,FALSE,FALSE,FALSE,FALSE,FALSE,1897,FALSE,FALSE,FALSE,FALSE,FALSE
completed,94.5,Kalia Tower,Honolulu,Hawaii,21.28396988,-157.8360901,FALSE,TRUE,2001,FALSE,FALSE,FALSE,FALSE,FALSE,FALSE,FALSE,24,FALSE,FALSE,FALSE,FALSE,FALSE,FALSE,FALSE,FALSE,FALSE,1895,FALSE,TRUE,FALSE,FALSE,FALSE
completed,94.5,West 57th Street by Hilton Club,New York City,New York,40.76435089,-73.97789001,FALSE,TRUE,2009,FALSE,FALSE,FALSE,FALSE,FALSE,FALSE,FALSE,28,FALSE,FALSE,TRUE,FALSE,FALSE,FALSE,FALSE,FALSE,FALSE,1893,FALSE,FALSE,FALSE,FALSE,FALSE
completed,94.5,Skye Building,Charlotte,North Carolina,35.22261047,-80.84101105,FALSE,TRUE,2013,FALSE,FALSE,FALSE,FALSE,FALSE,FALSE,FALSE,22,FALSE,FALSE,TRUE,FALSE,FALSE,FALSE,FALSE,FALSE,FALSE,1896,FALSE,TRUE,FALSE,FALSE,FALSE
completed,94.66999817,Michigan Avenue Tower II,Chicago,Illinois,41.86388016,-87.62447357,FALSE,TRUE,2009,FALSE,FALSE,FALSE,FALSE,FALSE,FALSE,FALSE,28,FALSE,FALSE,FALSE,FALSE,FALSE,FALSE,FALSE,FALSE,FALSE,1891,FALSE,TRUE,FALSE,FALSE,FALSE
completed,94.68000031,Rand Tower,Minneapolis,Minnesota,44.97735977,-93.26966095,FALSE,TRUE,1929,FALSE,FALSE,FALSE,FALSE,FALSE,FALSE,FALSE,27,FALSE,FALSE,FALSE,FALSE,FALSE,FALSE,FALSE,TRUE,FALSE,1890,FALSE,FALSE,FALSE,FALSE,FALSE
completed,94.79000092,theWit Hotel,Chicago,Illinois,41.88600159,-87.62760925,FALSE,TRUE,2009,FALSE,FALSE,FALSE,FALSE,FALSE,FALSE,FALSE,26,FALSE,FALSE,TRUE,FALSE,FALSE,FALSE,FALSE,FALSE,FALSE,1888,FALSE,FALSE,FALSE,FALSE,FALSE
completed,94.79000092,Capital Center South Tower,Indianapolis,Indiana,39.77032089,-86.15936279,FALSE,TRUE,1987,FALSE,FALSE,FALSE,FALSE,FALSE,FALSE,FALSE,22,FALSE,FALSE,FALSE,FALSE,FALSE,FALSE,FALSE,TRUE,FALSE,1889,FALSE,FALSE,FALSE,FALSE,FALSE
